stop_name,stop_lat,stop_lon,Bezirk,Bezirk_Name
Bf. Bergedorf,53.488888,10.205756,6,Bergedorf
Steinwerder,53.54004,9.966476,1,Hamburg-Mitte
U Eppendorfer Baum,53.584003,9.983598,4,Hamburg-Nord
S Hochkamp,53.561146,9.842697,2,Altona
Waltershof,53.52566,9.937227,1,Hamburg-Mitte
HBF/Steintorwall,53.551662,10.005705,1,Hamburg-Mitte
U Niendorf Markt,53.61888,9.952094,3,Eimsbüttel
S Tiefstack,53.530495,10.064805,1,Hamburg-Mitte
Farmsen,53.607117,10.117491,5,Wandsbek
Alsterdorfer Straße (U S Ohlsdorf),53.619644,10.032116,4,Hamburg-Nord
Lattenkamp (Sporthalle),53.599995,9.994566,4,Hamburg-Nord
Meiendorfer Weg,53.6388,10.1562,5,Wandsbek
U Wandsbek Markt,53.571804,10.068083,5,Wandsbek
U Hudtwalckerstraße,53.594093,9.996228,4,Hamburg-Nord
S Allermöhe,53.490536,10.158706,6,Bergedorf
Berne,53.62696,10.139707,5,Wandsbek
Rauhes Haus,53.554146,10.066458,1,Hamburg-Mitte
U Sengelmannstraße,53.60899,10.022162,4,Hamburg-Nord
Schlump,53.56761,9.969916,3,Eimsbüttel
U Straßburger Straße,53.582405,10.067815,4,Hamburg-Nord
Messe (Eingang Mitte),53.56191,9.975832,1,Hamburg-Mitte
Haupteingang Ohlsdorf,53.620716,10.034325,4,Hamburg-Nord
U Wandsbek-Gartenstadt,53.592014,10.076061,5,Wandsbek
Hovestieg,53.525127,10.021614,1,Hamburg-Mitte
U Stephansplatz,53.558296,9.98808,1,Hamburg-Mitte
Saselbekstraße,53.656193,10.134101,5,Wandsbek
Halenreie,53.653194,10.160215,5,Wandsbek
Ebertallee,53.567833,9.888529,2,Altona
HBF/Steintordamm,53.552,10.007987,1,Hamburg-Mitte
S Sülldorf,53.580315,9.796317,2,Altona
Überseequartier,53.540493,9.998456,1,Hamburg-Mitte
U Billstedt,53.54256,10.107664,1,Hamburg-Mitte
Fuhlsbüttel Nord,53.63944,10.016763,4,Hamburg-Nord
U Hallerstraße,53.572742,9.98932,3,Eimsbüttel
U Langenhorn Markt (Tangstedter Landstraße,53.648956,10.016368,4,Hamburg-Nord
Wandsbeker Chaussee,53.5698,10.057736,5,Wandsbek
Eilbeker Weg,53.568787,10.043848,5,Wandsbek
U S Landungsbrücken,53.5457,9.970465,1,Hamburg-Mitte
Wagnerstraße,53.57013,10.039922,5,Wandsbek
Eidelstedter Platz,53.60832,9.904851,3,Eimsbüttel
U Rödingsmarkt,53.548363,9.989717,1,Hamburg-Mitte
S Othmarschen,53.559006,9.887199,2,Altona
U Langenhorn Markt,53.649433,10.017356,4,Hamburg-Nord
Theater im Hafen,53.540764,9.974156,1,Hamburg-Mitte
S Neugraben,53.473255,9.851797,7,Harburg
U Christuskirche,53.569565,9.964787,3,Eimsbüttel
Kleine Seilerstraße,53.551056,9.967967,1,Hamburg-Mitte
Bf. Hasselbrook,53.565296,10.057293,5,Wandsbek
Sievekingplatz,53.555958,9.97746,1,Hamburg-Mitte
Volksdorf,53.650482,10.163261,5,Wandsbek
U Niendorf Nord,53.64034,9.949596,3,Eimsbüttel
Lattenkampstieg,53.597225,9.997162,4,Hamburg-Nord
Bf. Tonndorf,53.586483,10.122585,5,Wandsbek
Klosterstern,53.58158,9.988386,3,Eimsbüttel
Altona,53.552803,9.934821,2,Altona
Rahlstedt,53.604923,10.154616,5,Wandsbek
Meßberg,53.54773,10.000746,1,Hamburg-Mitte
U Alter Teichweg,53.58612,10.064958,4,Hamburg-Nord
Legienstraße,53.547016,10.096767,1,Hamburg-Mitte
Klein Borstel,53.628162,10.033265,4,Hamburg-Nord
Jungfernstieg,53.553146,9.994467,1,Hamburg-Mitte
U Steinstraße,53.55009,10.004558,1,Hamburg-Mitte
U Alsterdorf,53.60689,10.011715,4,Hamburg-Nord
Merkenstraße,53.538704,10.124669,1,Hamburg-Mitte
Mundsburg,53.56944,10.027543,4,Hamburg-Nord
Herbstsweg,53.59541,10.050118,4,Hamburg-Nord
Alsterdorf,53.606396,10.011347,4,Hamburg-Nord
Habichtstraße,53.593586,10.052265,4,Hamburg-Nord
Buchenkamp,53.652897,10.185602,5,Wandsbek
Steinfurther Allee (Nord),53.54128,10.137946,1,Hamburg-Mitte
U Borgweg,53.590664,10.015524,4,Hamburg-Nord
U Saarlandstraße,53.58773,10.034272,4,Hamburg-Nord
Fuhlsbüttel,53.63238,10.026807,4,Hamburg-Nord
Trabrennbahn,53.59831,10.102579,5,Wandsbek
Reeseberg,53.450752,9.987748,7,Harburg
A Eidelstedt Zentrum,53.610233,9.901142,3,Eimsbüttel
U Hagenbecks Tierpark,53.593327,9.94356,3,Eimsbüttel
U S Berliner Tor,53.55341,10.025046,1,Hamburg-Mitte
Lippeltstraße,53.545544,10.016287,1,Hamburg-Mitte
Lutterothstraße,53.582058,9.947737,3,Eimsbüttel
Friedensallee,53.554974,9.928585,2,Altona
U Ochsenzoll,53.677616,10.000661,4,Hamburg-Nord
U Hoheluftbrücke,53.578674,9.976061,3,Eimsbüttel
U S Barmbek,53.58755,10.045357,4,Hamburg-Nord
S Rissen,53.58249,9.758606,2,Altona
Hagendeel,53.60386,9.945257,3,Eimsbüttel
U Mundsburg,53.5697,10.027597,4,Hamburg-Nord
Hauptbahnhof Nord,53.554024,10.005202,1,Hamburg-Mitte
Gurlittstraße,53.55732,10.011257,1,Hamburg-Mitte
U S Jungfernstieg,53.55304,9.992653,1,Hamburg-Mitte
Bf. Tonndorf (Tonndorfer Hauptstraße),53.58565,10.123331,5,Wandsbek
Winterhuder Marktplatz,53.594723,9.999381,4,Hamburg-Nord
Berliner Tor,53.553333,10.022863,1,Hamburg-Mitte
Moorstieg,53.470642,9.920608,7,Harburg
Ohlstedt,53.694366,10.137192,5,Wandsbek
U Klosterstern,53.582302,9.987371,3,Eimsbüttel
Buckhorn,53.66441,10.155643,5,Wandsbek
U S Wandsbeker Chaussee,53.570156,10.058625,5,Wandsbek
Dehnhaide,53.578976,10.040793,4,Hamburg-Nord
Dammtor,53.560757,9.989569,3,Eimsbüttel
Straßburger Straße,53.581657,10.068183,4,Hamburg-Nord
Nagelsweg,53.543438,10.022522,1,Hamburg-Mitte
Uhlandstraße,53.56425,10.027004,4,Hamburg-Nord
U Buchenkamp,53.65305,10.186608,5,Wandsbek
HBF/Kirchenallee,53.554066,10.008175,1,Hamburg-Mitte
U Burgstraße,53.55579,10.042985,1,Hamburg-Mitte
Bf. Wandsbek,53.570457,10.078442,5,Wandsbek
Messehallen,53.558197,9.976788,1,Hamburg-Mitte
Hauptbahnhof Süd,53.552017,10.009568,1,Hamburg-Mitte
Elbe-Werkstätten Nord,53.638245,10.135179,5,Wandsbek
Landungsbrücken Brücke 1,53.544785,9.971596,1,Hamburg-Mitte
Ritterstraße,53.56769,10.046623,5,Wandsbek
U Baumwall,53.54444,9.981666,1,Hamburg-Mitte
Dockland (Fischereihafen),53.54317,9.934981,2,Altona
S Reeperbahn,53.55095,9.955632,2,Altona
U Berne,53.62597,10.140138,5,Wandsbek
Hasselbrook,53.564716,10.056122,5,Wandsbek
U Fuhlsbüttel,53.631897,10.026097,4,Hamburg-Nord
U S Sternschanze,53.56415,9.96635,2,Altona
Airport,53.63257,10.006366,4,Hamburg-Nord
Am Rosengarten,53.52672,9.822961,7,Harburg
Parkstraße/Elbchaussee,53.54668,9.881378,2,Altona
Seumestraße,53.573597,10.052283,5,Wandsbek
U Farmsen,53.607174,10.117447,5,Wandsbek
Steinstraße,53.54907,10.006289,1,Hamburg-Mitte
U Meiendorfer Weg,53.63906,10.157089,5,Wandsbek
U Horner Rennbahn,53.55444,10.084631,1,Hamburg-Mitte
S Wellingsbüttel,53.640953,10.082736,5,Wandsbek
Langenhorn Nord,53.66057,10.017437,4,Hamburg-Nord
U Hamburger Straße,53.574192,10.037128,4,Hamburg-Nord
S Klein Flottbek,53.55836,9.861355,2,Altona
Niendorf Nord,53.6407,9.950225,3,Eimsbüttel
Neuländer Hauptdeich,53.470146,9.995383,7,Harburg
Langenhorn Markt,53.64895,10.017275,4,Hamburg-Nord
U Gänsemarkt,53.555454,9.988592,1,Hamburg-Mitte
Harburg,53.455902,9.991704,7,Harburg
Billstedt,53.54259,10.107296,1,Hamburg-Mitte
A Burgwedel,53.648174,9.907798,3,Eimsbüttel
Griegstraße,53.554382,9.909693,2,Altona
U S Ohlsdorf(Freibad),53.620796,10.030984,4,Hamburg-Nord
U Langenhorn Nord,53.66136,10.018722,4,Hamburg-Nord
Alter Teichweg,53.586613,10.064518,4,Hamburg-Nord
Bf. Altona,53.551525,9.934918,2,Altona
Wandsbek Markt,53.5716,10.066719,5,Wandsbek
Neuhof,53.524166,9.940712,1,Hamburg-Mitte
Hudtwalckerstraße,53.59483,9.996075,4,Hamburg-Nord
Hbf,53.55271,10.007025,1,Hamburg-Mitte
Osterstraße,53.57614,9.951689,3,Eimsbüttel
S Poppenbüttel (Stormarnplatz),53.65142,10.094468,5,Wandsbek
S Rübenkamp (Zugang S-Bahn),53.60739,10.032987,4,Hamburg-Nord
Argentinienbrücke,53.528225,9.976088,1,Hamburg-Mitte
Neugraben,53.474144,9.852053,7,Harburg
S Friedrichsberg,53.576508,10.05857,4,Hamburg-Nord
S Iserbrook,53.577423,9.813457,2,Altona
Ochsenzoll,53.678005,10.001492,4,Hamburg-Nord
Barmbek,53.587353,10.044449,4,Hamburg-Nord
Hauptbahnhof/ZOB,53.55213,10.009954,1,Hamburg-Mitte
Niendorf Markt,53.619568,9.951537,3,Eimsbüttel
Steinfurther Allee,53.541084,10.139177,1,Hamburg-Mitte
Lohmühlenstraße,53.556553,10.019009,1,Hamburg-Mitte
U Überseequartier,53.541252,9.999282,1,Hamburg-Mitte
U S Berliner Tor (Beim Strohhause),53.553307,10.021746,1,Hamburg-Mitte
Immenhöven,53.66083,10.021722,4,Hamburg-Nord
HBF/Spitalerstraße,53.552605,10.005139,1,Hamburg-Mitte
S Poppenbüttel (Wentzelplatz),53.651398,10.09268,5,Wandsbek
S Nettelnburg,53.488556,10.181685,6,Bergedorf
Flughafenstraße,53.63961,10.012209,4,Hamburg-Nord
U Steinfurther Allee,53.54147,10.139006,1,Hamburg-Mitte
S Alte Wöhr,53.59683,10.037029,4,Hamburg-Nord
U Sierichstraße,53.590553,10.002417,4,Hamburg-Nord
U HafenCity Universität,53.54083,10.006559,1,Hamburg-Mitte
Christuskirche,53.569626,9.962415,3,Eimsbüttel
S Bahrenfeld,53.55979,9.909873,2,Altona
Burgstraße,53.55589,10.041746,1,Hamburg-Mitte
Im Grünen Grunde,53.62302,10.031487,4,Hamburg-Nord
Joachim-Mähl-Straße,53.629017,9.949893,3,Eimsbüttel
S Landwehr (Ramazan-Avci-Platz),53.56148,10.037056,4,Hamburg-Nord
U Lohmühlenstraße,53.55713,10.02006,1,Hamburg-Mitte
U Kellinghusenstraße,53.5882,9.991313,4,Hamburg-Nord
U Wartenau,53.56295,10.033292,4,Hamburg-Nord
Stephansplatz (Oper/CCH),53.558556,9.98932,1,Hamburg-Mitte
U Uhlandstraße,53.56549,10.025908,4,Hamburg-Nord
U Mümmelmannsberg,53.52712,10.14984,1,Hamburg-Mitte
U St.Pauli,53.550182,9.970446,1,Hamburg-Mitte
Emilienstraße,53.571693,9.952758,3,Eimsbüttel
Ohlsdorf,53.620716,10.03119,4,Hamburg-Nord
Trabrennbahn Bahrenfeld,53.573635,9.89197,2,Altona
Hallerstraße,53.57292,9.988934,3,Eimsbüttel
Brandstwiete,53.54707,9.997117,1,Hamburg-Mitte
Stellingen,53.589844,9.918338,3,Eimsbüttel
U Schlump,53.56783,9.969372,3,Eimsbüttel
U Ritterstraße,53.567276,10.043946,5,Wandsbek
Wartenau,53.56468,10.035556,5,Wandsbek
U Dehnhaide,53.580223,10.040991,4,Hamburg-Nord
Maria-Louisen-Straße (Nord),53.591747,10.005957,4,Hamburg-Nord
U Feldstraße,53.5574,9.969216,1,Hamburg-Mitte
U S Sternschanze (Kehre),53.56417,9.968641,2,Altona
U Lübecker Straße,53.560047,10.028783,4,Hamburg-Nord
Lübecker Straße,53.559574,10.028864,4,Hamburg-Nord
U Merkenstraße,53.539154,10.127328,1,Hamburg-Mitte
Kriegerdankweg,53.632526,9.9084,3,Eimsbüttel
Kiwittsmoor,53.675133,10.01582,4,Hamburg-Nord
S Blankenese,53.56331,9.814409,2,Altona
U Berne (Berner Heerweg),53.626602,10.138701,5,Wandsbek
U Hammer Kirche,53.555515,10.054582,1,Hamburg-Mitte
Sachsenstraße,53.54628,10.027085,1,Hamburg-Mitte
Landungsbrücken Brücke 2,53.545025,9.970617,1,Hamburg-Mitte
Gänsemarkt (Oper),53.555733,9.986481,1,Hamburg-Mitte
S Rübenkamp,53.60739,10.033032,4,Hamburg-Nord
Maxstraße,53.57085,10.048258,5,Wandsbek
Mümmelmannsberg,53.528725,10.150055,1,Hamburg-Mitte
HBF/Mönckebergstraße,53.551548,10.004187,1,Hamburg-Mitte
Schippelsweg,53.6348,9.952678,3,Eimsbüttel
Landungsbrücken Brücke 3,53.545097,9.969755,1,Hamburg-Mitte
Kellinghusenstraße,53.58883,9.990577,4,Hamburg-Nord
U Emilienstraße,53.57147,9.952462,3,Eimsbüttel
Holstenstraße,53.561764,9.949739,2,Altona
Süderelbe (Süd),53.470257,9.993731,7,Harburg
Sengelmannstraße (City Nord),53.60944,10.021992,4,Hamburg-Nord
Hammer Kirche,53.555622,10.054852,1,Hamburg-Mitte
Albertinen-Krankenhaus (A Schnelsen),53.632126,9.905363,3,Eimsbüttel
Wohlersweg,53.455696,9.999731,7,Harburg
HafenCity Universität,53.54067,10.007601,1,Hamburg-Mitte
Tonndorf,53.58647,10.123049,5,Wandsbek
U S Ohlsdorf,53.621597,10.031424,4,Hamburg-Nord
Hagenbecks Tierpark,53.5929,9.944081,3,Eimsbüttel
A Schnelsen,53.633255,9.905974,3,Eimsbüttel
U Fuhlsbüttel Nord,53.640163,10.017105,4,Hamburg-Nord
Horner Rennbahn,53.55353,10.084282,1,Hamburg-Mitte
U Lattenkamp,53.59989,9.993937,4,Hamburg-Nord
Wandsbek-Gartenstadt,53.592484,10.074893,5,Wandsbek
U Volksdorf,53.650635,10.161796,5,Wandsbek
S Elbgaustraße,53.60356,9.893749,3,Eimsbüttel
A S Eidelstedt,53.59609,9.905433,3,Eimsbüttel
AIRBUS,53.536594,9.847978,1,Hamburg-Mitte
AIRBUS (Fähranleger/Haus 25),53.543102,9.841063,1,Hamburg-Mitte
AIRBUS (Kehre),53.5371,9.847294,1,Hamburg-Mitte
AIRBUS (Osttor/Einfahrt),53.53784,9.846781,1,Hamburg-Mitte
AIRBUS (Schiffsanleger),53.544823,9.840992,1,Hamburg-Mitte
AIRBUS (Werkgelände),53.54317,9.832647,1,Hamburg-Mitte
AK Altona (Eingang),53.555035,9.898248,2,Altona
AK Barmbek,53.60512,10.039917,4,Hamburg-Nord
AK Harburg,53.459,9.951442,7,Harburg
AK St. Georg,53.55996,10.014677,1,Hamburg-Mitte
AK Wandsbek,53.568703,10.091341,5,Wandsbek
Achter de Höf,53.57946,9.761448,2,Altona
Achterdeich,53.408684,10.246628,6,Bergedorf
Achterdiekbrücke,53.427082,10.203356,6,Bergedorf
Achterkamp,53.43802,10.008081,7,Harburg
Achtern Born (Kindermuseum),53.587082,9.851707,2,Altona
Achtern Brack (Ost),53.50809,9.849458,7,Harburg
Achtern Brack (West),53.507153,9.843561,7,Harburg
Achtern Sand,53.584377,9.770822,2,Altona
Achtern Styg,53.58136,9.866812,2,Altona
Achterschlag,53.468174,10.237544,6,Bergedorf
Adebarweg,53.58356,9.74538,2,Altona
Adolf-Köster-Damm,53.485397,10.146946,6,Bergedorf
Afrikastraße,53.527508,9.989833,1,Hamburg-Mitte
Agathe-Lasch-Weg,53.552544,9.893608,2,Altona
Ahrensburger Platz,53.655777,10.176027,5,Wandsbek
Alaskaweg,53.62835,10.150564,5,Wandsbek
Albert-Schweitzer-Ring,53.579433,10.123114,5,Wandsbek
Albertstraße,53.5491,10.019774,1,Hamburg-Mitte
Alfred-Mahlau-Weg,53.609818,10.054477,5,Wandsbek
Alfredstraße,53.55762,10.033022,1,Hamburg-Mitte
Algermissenstraße,53.49701,10.011515,1,Hamburg-Mitte
Allermöher Deich 187,53.47606,10.140563,6,Bergedorf
Allermöher Deich 355,53.47253,10.162518,6,Bergedorf
Allermöher Deich 365,53.472454,10.164835,6,Bergedorf
Allermöher Deich 75,53.48292,10.124553,6,Bergedorf
Allermöher Kirche,53.48216,10.129309,6,Bergedorf
Allermöher Werftstegel,53.471718,10.17233,6,Bergedorf
Alsenplatz,53.56648,9.951802,2,Altona
Alsterblick,53.69929,10.1237,5,Wandsbek
Alsterchaussee,53.57274,9.994015,3,Eimsbüttel
Alsterdorfer Damm,53.61342,9.999383,4,Hamburg-Nord
Alsterdorfer Straße/Überseekolleg,53.617237,10.026705,4,Hamburg-Nord
Alsterkrugchaussee (Mitte),53.61785,10.005352,4,Hamburg-Nord
Alsterkrugchaussee 244,53.610394,9.99564,4,Hamburg-Nord
Alsterredder,53.659157,10.095584,5,Wandsbek
Alstertal-Einkaufszentrum,53.655323,10.093019,5,Wandsbek
Alte Holstenstraße,53.49048,10.208376,6,Bergedorf
Alte Horster Schule,53.455887,10.283164,6,Bergedorf
Alte Landstraße (Nord),53.653202,10.077295,5,Wandsbek
Alte Schule Moorburg,53.494865,9.927744,7,Harburg
Alte Schule Neuland,53.470463,10.027449,7,Harburg
Alte Schule Reitbrook,53.468044,10.148812,6,Bergedorf
Alte Schule Seefeld,53.44401,10.164312,6,Bergedorf
Alte Twiete,53.41923,10.20139,6,Bergedorf
Altengamme (Feuerwehr),53.430325,10.274404,6,Bergedorf
Altengamme (Süd),53.427605,10.285863,6,Bergedorf
Altengammer Elbwiesen,53.426716,10.279336,6,Bergedorf
Altengammer Löschplatz,53.428722,10.290726,6,Bergedorf
Altengammer Marschbahndamm,53.44157,10.301681,6,Bergedorf
Altenwerder Hauptstraße (Mitte),53.500343,9.921444,7,Harburg
Altenwerder Hauptstraße (Süd),53.499012,9.919245,7,Harburg
Alter Bahnhof Kirchwerder,53.42516,10.200714,6,Bergedorf
Alter Berner Weg,53.64403,10.12167,5,Wandsbek
Alter Fährweg,53.53181,9.778312,7,Harburg
Alter Fährweg (Kehre),53.531925,9.777364,7,Harburg
Alter Güterbahnhof,53.59108,10.035419,4,Hamburg-Nord
Alter Zollweg,53.60791,10.137211,5,Wandsbek
Altes Estesperrwerk,53.533638,9.77542,7,Harburg
Altes Rathaus Rahlstedt,53.60229,10.159025,5,Wandsbek
Altona (Fischmarkt),53.54394,9.952231,2,Altona
Altonaer Poststraße,53.55011,9.940314,2,Altona
Altwiedenthaler Straße,53.478085,9.888246,7,Harburg
Aluminiumwerk,53.5178,9.88953,1,Hamburg-Mitte
Am Altenwerder Kirchtal,53.507046,9.921605,7,Harburg
Am Altenwerder Kirchtal (Süd),53.503952,9.921839,7,Harburg
Am Baum,53.48927,10.225804,6,Bergedorf
Am Bergedorfer Hafen,53.48828,10.206234,6,Bergedorf
Am Born,53.554386,9.924007,2,Altona
Am Botterbarg,53.574856,9.83493,2,Altona
Am Callabrack,53.48245,10.009773,1,Hamburg-Mitte
Am Damm,53.63197,10.089165,5,Wandsbek
Am Dornberg,53.60171,10.108206,5,Wandsbek
Am Elisabethgehölz,53.5572,10.062056,1,Hamburg-Mitte
Am Frankenberg,53.436367,9.985521,7,Harburg
Am Fuchsberg,53.46524,9.948314,7,Harburg
Am Gehöckel,53.640087,10.054598,5,Wandsbek
Am Genter Ufer,53.515553,9.895663,1,Hamburg-Mitte
Am Gleisdreieck,53.49552,10.129182,6,Bergedorf
Am Gnadenberg,53.638107,10.035483,5,Wandsbek
Am Güterbahnhof,53.485233,10.201824,6,Bergedorf
Am Hegen,53.589096,10.180486,5,Wandsbek
Am Hehsel,53.647137,10.056286,5,Wandsbek
Am Hirschpark,53.55665,9.821262,2,Altona
Am Hohen Feld,53.57103,10.115585,5,Wandsbek
Am Hohen Hause (Rentenversicherung),53.592354,10.109818,5,Wandsbek
Am Horner Moor,53.55461,10.100364,1,Hamburg-Mitte
Am Husarendenkmal,53.56477,10.077928,5,Wandsbek
Am Isfeld,53.571632,9.840875,2,Altona
Am Jenfelder Moor,53.57651,10.113796,5,Wandsbek
Am Kaiserkai (Elbphilharmonie),53.542717,9.985572,1,Hamburg-Mitte
Am Kroog,53.609497,10.141137,5,Wandsbek
Am Langberg,53.51598,10.157843,6,Bergedorf
Am Licentiatenberg,53.614178,9.983626,4,Hamburg-Nord
Am Lilienberg,53.584377,9.775443,2,Altona
Am Mühlenbach,53.53101,10.154347,1,Hamburg-Mitte
Am Neumarkt 63,53.575672,10.096669,5,Wandsbek
Am Ohlendorffturm,53.59487,10.168745,5,Wandsbek
Am Papenbrack,53.48807,10.009012,1,Hamburg-Mitte
Am Pavillon,53.433926,9.968767,7,Harburg
Am Pfeilshof,53.640675,10.098401,5,Wandsbek
Am Pulverhof,53.592873,10.137441,5,Wandsbek
Am Pulverhof (Mitte),53.59407,10.13446,5,Wandsbek
Am Radeland,53.47181,9.925645,7,Harburg
Am Sandtorkai,53.54315,9.991713,1,Hamburg-Mitte
Am Schilfpark,53.47976,10.204636,6,Bergedorf
Am Schleusengraben,53.47741,10.206347,6,Bergedorf
Am Schulwald,53.6501,10.027232,4,Hamburg-Nord
Am Stadtrand,53.588886,10.098869,5,Wandsbek
Am Stühm-Süd,53.627785,10.09991,5,Wandsbek
Am Volkspark,53.585506,9.908287,2,Altona
Ameisweg,53.47716,10.181578,6,Bergedorf
Amtsstraße,53.596436,10.163366,5,Wandsbek
An de Geest,53.469944,9.819345,7,Harburg
An den Wiesen,53.479313,9.855676,7,Harburg
An der Bergkoppel,53.500668,10.198794,6,Bergedorf
An der Eiche,53.43418,10.010629,7,Harburg
An der Lohe,53.623844,9.95264,3,Eimsbüttel
An der Pollhofsbrücke,53.479706,10.231146,6,Bergedorf
An der Schleemer Mühle,53.53726,10.115948,1,Hamburg-Mitte
Andreas-Meyer-Straße (Mitte),53.518078,10.078294,1,Hamburg-Mitte
Andreas-Meyer-Straße (Ost),53.51601,10.081634,1,Hamburg-Mitte
Andreas-Meyer-Straße (West),53.522053,10.071882,1,Hamburg-Mitte
Angerburger Straße,53.591743,10.087505,5,Wandsbek
Anna-Susanna-Stieg,53.64303,9.921439,3,Eimsbüttel
Anne-Frank-Straße,53.570396,9.789316,2,Altona
Anton-Rée-Schule,53.48241,10.17446,6,Bergedorf
Apostelkirche,53.575317,9.945237,3,Eimsbüttel
Appelbütteler Weg,53.436623,9.9346,7,Harburg
Archenholzstraße (Ost),53.544636,10.125496,1,Hamburg-Mitte
Arenen,53.588585,9.899353,2,Altona
Arenen (Luftbadweg),53.58416,9.897443,2,Altona
Argentinienbrücke (Fähre),53.528,9.974493,1,Hamburg-Mitte
Armbruststraße,53.57422,9.939929,3,Eimsbüttel
Arningstraße,53.537045,9.985199,1,Hamburg-Mitte
Arningstraße (Fähre),53.537148,9.984568,1,Hamburg-Mitte
Arnswalder Straße,53.613667,10.151464,5,Wandsbek
Arp-Schnitger-Stieg,53.513695,9.811446,7,Harburg
Aschenputtelstraße,53.562473,10.119646,1,Hamburg-Mitte
Asklepios Westklinikum (Mitte),53.582478,9.778926,2,Altona
Asklepios Westklinikum (Ost),53.581997,9.782224,2,Altona
Asklepios Westklinikum (West),53.58225,9.773637,2,Altona
Auedeich,53.526787,9.884711,1,Hamburg-Mitte
Auenstraße,53.57242,10.050693,5,Wandsbek
Auf dem Sande (Speicherstadt),53.54387,9.989883,1,Hamburg-Mitte
Auf dem Sülzbrack,53.40755,10.177812,6,Bergedorf
Auf der Bojewiese,53.496716,10.177827,6,Bergedorf
Auf der Hohen Schaar,53.497566,9.963503,1,Hamburg-Mitte
Auf der Jahnhöhe,53.453876,9.929665,7,Harburg
August-Bebel-Straße,53.48318,10.233929,6,Bergedorf
August-Kirch-Straße,53.571438,9.89769,2,Altona
Augustastraße,53.49085,10.215302,6,Bergedorf
Auguste-Baur-Straße,53.559147,9.813493,2,Altona
Augustenburger Straße,53.56544,9.944624,2,Altona
Aurubis Werk Ost,53.51537,10.03535,1,Hamburg-Mitte
Aurubis Zentrale,53.5216,10.033829,1,Hamburg-Mitte
Ausschläger Allee (Kfz-Verwahrstelle),53.53102,10.060043,1,Hamburg-Mitte
Ausschläger Weg (LBV),53.547573,10.038294,1,Hamburg-Mitte
Außenmühle,53.45054,9.981951,7,Harburg
Averhoffstraße,53.570637,10.01682,4,Hamburg-Nord
Axel-Springer-Platz,53.552208,9.985521,1,Hamburg-Mitte
BAB-Auffahrt Horn,53.559444,10.067757,1,Hamburg-Mitte
BAB-Auffahrt Stellingen,53.596596,9.92221,3,Eimsbüttel
BAB-Auffahrt Waltershof,53.514236,9.911917,1,Hamburg-Mitte
BAB-Auffahrt Waltershof (N),53.5144,9.912433,1,Hamburg-Mitte
BG Klinikum Boberg,53.5076,10.180179,6,Bergedorf
Baakenhöft,53.538307,10.008576,1,Hamburg-Mitte
Bachstraße,53.577038,10.024855,4,Hamburg-Nord
Bahngärten,53.57039,10.077814,5,Wandsbek
Bahnübergang Sieversstücken,53.581223,9.78523,2,Altona
Bahrenfelder Marktplatz,53.56447,9.901784,2,Altona
Bahrenfelder Straße,53.55042,9.928266,2,Altona
Banksstraße (Großmarkt),53.544655,10.015005,1,Hamburg-Mitte
Bargkoppelweg,53.626,10.161181,5,Wandsbek
Bargteheider Straße (Nord),53.6139,10.15549,5,Wandsbek
Bargteheider Straße (Süd),53.602455,10.145464,5,Wandsbek
Barmwisch,53.597027,10.091782,5,Wandsbek
Baron-Voght-Straße (Mitte),53.557533,9.865011,2,Altona
Bartholomäus-Therme,53.577843,10.028307,4,Hamburg-Nord
Basselweg,53.587402,9.931931,3,Eimsbüttel
Bauerberg,53.550255,10.078464,1,Hamburg-Mitte
Bauernholztal,53.456356,9.866731,7,Harburg
Bauernrosenweg,53.598396,10.065824,5,Wandsbek
Bauernstegel,53.47977,10.054456,1,Hamburg-Mitte
Baumacker,53.6207,9.897648,3,Eimsbüttel
Baumläuferweg,53.604355,9.876574,2,Altona
Bebelallee,53.605705,9.996255,4,Hamburg-Nord
Beckers Treppe,53.55823,9.808044,2,Altona
Beerbuschredder,53.677715,10.119054,5,Wandsbek
Beerentalweg,53.448345,9.94291,7,Harburg
Beethovenstraße,53.574673,10.021854,4,Hamburg-Nord
Behnsrade,53.512226,10.199181,6,Bergedorf
Behnstraße,53.546116,9.943002,2,Altona
Behringstraße (AK Altona),53.557037,9.90078,2,Altona
Behrmannplatz,53.599094,9.957596,3,Eimsbüttel
Bei St. Annen,53.545525,9.997209,1,Hamburg-Mitte
Bei der Blauen Brücke,53.436775,10.237037,6,Bergedorf
Beim Avenberg,53.4711,10.082554,6,Bergedorf
Beim Bieberhof,53.485348,10.072161,6,Bergedorf
Beim Farenland,53.635387,10.13597,5,Wandsbek
Beim Hammer Marktplatz,53.557114,10.054041,1,Hamburg-Mitte
Bekkamp,53.576004,10.143646,5,Wandsbek
Bekkampsweg,53.574978,10.138923,5,Wandsbek
Bekstück,53.609947,9.964731,3,Eimsbüttel
Bergheide,53.46779,9.854736,7,Harburg
Bergstedter Alte Landstraße,53.67402,10.13309,5,Wandsbek
Bergstedter Markt,53.67022,10.126208,5,Wandsbek
Berkefeldweg,53.470654,9.952697,7,Harburg
Berliner Platz,53.583984,10.141506,5,Wandsbek
Bernadottestraße,53.548634,9.890056,2,Altona
Berner Chaussee,53.619076,10.080355,5,Wandsbek
Berner Heerweg,53.618595,10.126405,5,Wandsbek
Berner Straße,53.618973,10.149236,5,Wandsbek
Bernhard-Nocht-Straße,53.547108,9.962908,1,Hamburg-Mitte
Bernstorffstraße,53.56011,9.959838,1,Hamburg-Mitte
Bertha-Uhl-Kamp,53.56507,9.870372,2,Altona
Berufsförderungswerk,53.611996,10.115441,5,Wandsbek
Berufsschulcampus Elbinsel,53.500515,10.001577,1,Hamburg-Mitte
Berufsschulzentrum Bergedorf,53.491673,10.182629,6,Bergedorf
Berzeliusstraße (Mitte),53.534145,10.097209,1,Hamburg-Mitte
Berzeliusstraße (West),53.535736,10.088246,1,Hamburg-Mitte
Berzeliusstraße 42,53.5346,10.094672,1,Hamburg-Mitte
Bethesda Krankenhaus Bergedorf,53.48593,10.234084,6,Bergedorf
Bethesdastraße,53.558258,10.039221,1,Hamburg-Mitte
Beutnerring,53.443295,9.955702,7,Harburg
Beutnerring (Kehre),53.44358,9.953676,7,Harburg
Bezirksamt Eimsbüttel,53.572342,9.978527,3,Eimsbüttel
Bezirksamt Nord,53.590515,9.987395,4,Hamburg-Nord
Bf. Dammtor,53.561047,9.990305,3,Eimsbüttel
Bf. Harburg (Großmoordamm),53.45759,9.99336,7,Harburg
Bf. Rahlstedt (Amtsstraße),53.60365,10.153971,5,Wandsbek
Bf. Rahlstedt (Doberaner Weg),53.604465,10.153283,5,Wandsbek
Biedermannplatz,53.579872,10.032292,4,Hamburg-Nord
Billbrookdeich,53.535892,10.076967,1,Hamburg-Mitte
Billbrookdeich (Ost),53.531006,10.111259,1,Hamburg-Mitte
Billbrookdeich 210,53.534744,10.104992,1,Hamburg-Mitte
Bille-Bad,53.493053,10.214868,6,Bergedorf
Billerhuder Insel,53.54424,10.058714,1,Hamburg-Mitte
Billhorner Brückenstraße,53.540394,10.032009,1,Hamburg-Mitte
Billhorner Deich,53.534184,10.042491,1,Hamburg-Mitte
Billhorner Deich (Wasserforum),53.533688,10.041544,1,Hamburg-Mitte
Billhorner Mühlenweg,53.536453,10.034915,1,Hamburg-Mitte
Billhorner Röhrendamm,53.537834,10.030861,1,Hamburg-Mitte
Billstedter Hauptstraße,53.540302,10.100612,1,Hamburg-Mitte
Billstedter Mühlenweg,53.533318,10.115392,1,Hamburg-Mitte
Billstieg,53.534096,10.108459,1,Hamburg-Mitte
Billstieg (Kehre),53.533573,10.109516,1,Hamburg-Mitte
Billstraße,53.54141,10.033376,1,Hamburg-Mitte
Billwerder (Feuerwehr),53.504555,10.135662,6,Bergedorf
Billwerder Billdeich (Ost),53.4962,10.179817,6,Bergedorf
Billwerder Billdeich (West),53.52341,10.112282,6,Bergedorf
Billwerder Billdeich 174,53.509834,10.129381,6,Bergedorf
Billwerder Billdeich 318,53.50127,10.147495,6,Bergedorf
Billwerder Billdeich 356,53.50229,10.153596,6,Bergedorf
Billwerder Bucht,53.523037,10.067579,6,Bergedorf
Billwerder Kirche,53.514362,10.127723,6,Bergedorf
Billwerder Ring (Ost),53.494347,10.121631,6,Bergedorf
Billwerder Straße (HAW),53.492878,10.198327,6,Bergedorf
Billwiese,53.491226,10.188448,6,Bergedorf
Bindfeldweg,53.62241,9.941603,3,Eimsbüttel
Binnenfeldredder,53.503654,10.210635,6,Bergedorf
Birkenallee (Süd),53.597504,10.141005,5,Wandsbek
Birtstraße,53.575405,10.092194,5,Wandsbek
Bismarckstraße,53.57669,9.969378,3,Eimsbüttel
Bissingstraße,53.469563,9.962963,7,Harburg
Björnsonweg,53.566288,9.793647,2,Altona
Blankenese (Fähre),53.557034,9.803783,2,Altona
Blankeneser Friedhof,53.576363,9.802562,2,Altona
Blaue Brücke,53.538895,10.083877,1,Hamburg-Mitte
Blaumeisenweg,53.45107,9.943287,7,Harburg
Bleickenallee (Kinderkrankenhaus),53.55115,9.918369,2,Altona
Blohmstraße,53.467182,9.981838,7,Harburg
Blomkamp,53.577286,9.859965,2,Altona
Blumensand Abzweigung,53.50035,9.968533,1,Hamburg-Mitte
Blättnerring,53.43323,9.986472,7,Harburg
Blücherstraße,53.54922,9.950283,2,Altona
Boberg,53.51442,10.167313,6,Bergedorf
Boberger Drift,53.51365,10.17088,6,Bergedorf
Boberger Furtweg,53.506393,10.164032,6,Bergedorf
Bogenstraße,53.574013,9.972849,3,Eimsbüttel
Bojendamm,53.50265,10.170712,6,Bergedorf
Bojeweg,53.500538,10.174828,6,Bergedorf
Boltenhagener Straße,53.60011,10.137445,5,Wandsbek
Bookweetenkamp,53.57592,9.749125,2,Altona
Borchertring,53.614796,10.067446,5,Wandsbek
Borgfelder Straße,53.55471,10.03364,1,Hamburg-Mitte
Borghorst,53.439953,10.303151,6,Bergedorf
Bornkampsweg,53.563976,9.919296,2,Altona
Bornmühlenweg,53.49935,10.210542,6,Bergedorf
Borsigstraße (Mitte),53.5332,10.074667,1,Hamburg-Mitte
Borstelmannsweg,53.550404,10.049664,1,Hamburg-Mitte
Borstelmannsweg 133,53.548187,10.051058,1,Hamburg-Mitte
Bostelbek,53.47085,9.932039,7,Harburg
Bovestraße,53.568977,10.085613,5,Wandsbek
Braamkamp,53.601585,9.996808,4,Hamburg-Nord
Brabandstraße,53.613373,10.008841,4,Hamburg-Nord
Bramfelder Dorfplatz,53.614872,10.076273,5,Wandsbek
Bramfelder See,53.618668,10.073695,5,Wandsbek
Bramkoppel,53.661568,10.106993,5,Wandsbek
Braune Brücke,53.54676,10.061086,1,Hamburg-Mitte
Bredenbekstraße,53.692806,10.131233,5,Wandsbek
Bredowbrücke,53.529526,10.076534,1,Hamburg-Mitte
Bredowstraße (Mitte),53.52432,10.083836,1,Hamburg-Mitte
Bredowstraße (Ost),53.51917,10.096671,1,Hamburg-Mitte
Breitenfelder Straße,53.587135,9.975492,4,Hamburg-Nord
Breslauer Straße,53.520355,9.958863,1,Hamburg-Mitte
Brillkamp,53.64664,10.049136,5,Wandsbek
Brockdorffstraße,53.59647,10.152537,5,Wandsbek
Brombeerweg (West),53.62787,10.026722,4,Hamburg-Nord
BrookHus,53.71425,10.139533,5,Wandsbek
Brucknerstraße (Arbeitsgerichte),53.583565,10.033423,4,Hamburg-Nord
Brunnenstieg,53.53385,9.870787,1,Hamburg-Mitte
Brunsberg,53.594154,9.966655,3,Eimsbüttel
Brunskamp,53.59385,10.181344,5,Wandsbek
Brünschentwiete,53.583153,9.7419,2,Altona
Bubendey-Ufer,53.540123,9.885367,1,Hamburg-Mitte
Bubendey-Ufer (Fähre),53.539482,9.88472,1,Hamburg-Mitte
Buchenstieg,53.64824,10.185723,5,Wandsbek
Buchholzer Weg,53.43171,9.983503,7,Harburg
Buchwaldstraße,53.59928,10.162704,5,Wandsbek
Buddenbrookweg,53.626236,10.116724,5,Wandsbek
Bullenhuser Damm (Ost),53.54216,10.051934,1,Hamburg-Mitte
Bullenhuser Damm (West),53.542664,10.04282,1,Hamburg-Mitte
Bullenkoppel,53.595306,10.091521,5,Wandsbek
Bundesstraße,53.569202,9.974067,3,Eimsbüttel
Burbekstraße,53.616108,9.874913,3,Eimsbüttel
Burgwedelkamp,53.64273,9.915801,3,Eimsbüttel
Burgwedeltwiete,53.641937,9.911556,3,Eimsbüttel
Burgweide,53.486595,10.022823,1,Hamburg-Mitte
Burmesterstraße,53.587444,10.036916,4,Hamburg-Nord
Busbrookhöhe,53.62192,10.130288,5,Wandsbek
Buschrosenweg,53.601643,10.062552,5,Wandsbek
Böcklerstraße,53.56344,10.107687,1,Hamburg-Mitte
Böcklinstraße,53.56297,9.887127,2,Altona
Böckmannstraße,53.55488,10.015153,1,Hamburg-Mitte
Bökenbarg,53.69658,10.100372,5,Wandsbek
Böttcherkamp,53.59347,9.852923,2,Altona
Böttgerstraße,53.56835,9.995527,3,Eimsbüttel
Bünte,53.455273,9.943109,7,Harburg
Bürgerweide (Ost),53.559242,10.03874,1,Hamburg-Mitte
Carl-Bremer-Ring,53.603027,10.084528,5,Wandsbek
Carl-Cohn-Straße,53.607338,10.005449,4,Hamburg-Nord
Carlsbrack,53.40358,10.196663,6,Bergedorf
Caspar-Voght-Straße,53.560364,10.061517,1,Hamburg-Mitte
Celsiusweg,53.56197,9.92295,2,Altona
Charitas-Bischoff-Treppe,53.559246,9.80512,2,Altona
Claudiusstraße,53.56476,10.071226,5,Wandsbek
Claus-Ferck-Straße,53.651722,10.167066,5,Wandsbek
Container Terminal Burchardkai,53.52665,9.929721,1,Hamburg-Mitte
Container Terminal EUROGATE,53.523037,9.924048,1,Hamburg-Mitte
Cornehlsweg,53.647034,10.177946,5,Wandsbek
Cranz (Fähre),53.535374,9.779358,7,Harburg
Cranzer Elbdeich,53.540363,9.774653,7,Harburg
Culinstraße,53.551964,10.073196,1,Hamburg-Mitte
Curslack (Feuerwehr),53.450047,10.222039,6,Bergedorf
Curslacker Brückendamm,53.46294,10.199357,6,Bergedorf
Curslacker Deich 200,53.452732,10.219753,6,Bergedorf
Curslacker Deich 336,53.463787,10.208009,6,Bergedorf
Curslacker Heerweg 118,53.459167,10.234421,6,Bergedorf
Curslacker Heerweg 258,53.473587,10.239117,6,Bergedorf
Curt-Bär-Weg,53.48401,10.158719,6,Bergedorf
Cuxhavener Straße (West),53.467327,9.809145,7,Harburg
Dahlgrünring,53.483414,10.018633,1,Hamburg-Mitte
Dahrendorfweg,53.5569,10.106458,1,Hamburg-Mitte
Daimlerstraße,53.55604,9.921478,2,Altona
Dakarweg,53.602783,10.025297,4,Hamburg-Nord
Dallbregen,53.61889,9.896189,3,Eimsbüttel
Dannerallee,53.559044,10.108644,1,Hamburg-Mitte
Darbovenstieg,53.572025,9.824428,2,Altona
Davidstraße,53.549427,9.961648,1,Hamburg-Mitte
Deelwisch,53.59836,9.941945,3,Eimsbüttel
Deepenbrook (Möbel Höffner),53.621017,9.90837,3,Eimsbüttel
Deichtorhallen,53.546288,10.007863,1,Hamburg-Mitte
Dempwolffstraße,53.45787,9.9658,7,Harburg
Denickestraße,53.458984,9.956621,7,Harburg
Denksteinweg,53.5711,10.131135,5,Wandsbek
Dernauer Straße,53.58068,10.08632,5,Wandsbek
Dessauer Straße,53.523514,10.007578,1,Hamburg-Mitte
Diagonalstraße,53.549255,10.059458,1,Hamburg-Mitte
Dimpfelweg,53.552814,10.049256,1,Hamburg-Mitte
Distelacker,53.46835,9.855666,7,Harburg
Distelkoppel,53.635937,10.043473,5,Wandsbek
Domstraße,53.548214,9.994587,1,Hamburg-Mitte
Dorferbogen,53.468094,10.067193,6,Bergedorf
Dornröschenweg,53.648354,9.920663,3,Eimsbüttel
Dorotheenstraße,53.587288,10.004988,4,Hamburg-Nord
Dortmunder Straße,53.673626,9.994302,4,Hamburg-Nord
Dradenau,53.525143,9.900103,1,Hamburg-Mitte
Dradenauer Deichweg,53.51125,9.900577,7,Harburg
Dragonerstall,53.555622,9.982055,1,Hamburg-Mitte
Dratelnstraße,53.498722,9.999129,1,Hamburg-Mitte
Dreyerpfad,53.6535,10.006805,4,Hamburg-Nord
Drosselstieg,53.671318,10.061128,5,Wandsbek
Durchdeich (Süd),53.44121,10.121585,6,Bergedorf
Durchdeich 141,53.45197,10.135808,6,Bergedorf
Dörpsweg,53.611053,9.911525,3,Eimsbüttel
Düpenautal,53.568703,9.834869,2,Altona
EEZ (Julius-Brecht-Straße),53.569977,9.861431,2,Altona
EKZ Hummelsbüttel,53.642536,10.048006,5,Wandsbek
EUROPA-CENTER Air30,53.537807,9.864247,1,Hamburg-Mitte
Ebeersreye,53.595306,10.114684,5,Wandsbek
Eckerkoppel,53.600002,10.118061,5,Wandsbek
Eckerwiese,53.59913,10.108606,5,Wandsbek
Eckhoffplatz (Lurup Center),53.590897,9.873577,2,Altona
Eddelbüttelkamp,53.439217,9.965422,7,Harburg
Eekholtesweg,53.54151,10.083597,1,Hamburg-Mitte
Eggerskamp,53.610718,10.156506,5,Wandsbek
Ehestorfer Weg (Mitte),53.455006,9.937112,7,Harburg
Eichbaumsee,53.487503,10.104712,6,Bergedorf
Eichberg,53.61298,10.16506,5,Wandsbek
Eichenallee,53.62711,10.077023,4,Hamburg-Nord
Eichenlohweg,53.60793,10.044474,5,Wandsbek
Eichholzfelder Deich,53.479305,10.091168,6,Bergedorf
Eichtalstraße,53.57793,10.089149,5,Wandsbek
Eichwischen,53.614403,10.171159,5,Wandsbek
Eidelstedter Brook,53.622517,9.908734,3,Eimsbüttel
Eidelstedter Weg,53.580894,9.957124,3,Eimsbüttel
Eimsbütteler Marktplatz,53.573227,9.946292,3,Eimsbüttel
Einhausring,53.434048,9.989906,7,Harburg
Einkaufszentrum Steilshoop,53.61037,10.058752,5,Wandsbek
Einlagedeich,53.479607,10.045565,1,Hamburg-Mitte
Eisenhansweg,53.645336,9.921958,3,Eimsbüttel
Eissporthalle,53.604137,10.11966,5,Wandsbek
Eißendorfer Mühlenweg,53.448177,9.961742,7,Harburg
Eißendorfer Pferdeweg (Mitte),53.462788,9.949801,7,Harburg
Eißendorfer Pferdeweg (Nord),53.47103,9.945688,7,Harburg
Eißendorfer Straße (TU ),53.459126,9.970451,7,Harburg
Elbberg,53.5453,9.931367,2,Altona
Elbbrücken,53.53523,10.023623,1,Hamburg-Mitte
Elbe-Einkaufszentrum,53.571808,9.861906,2,Altona
Elbhöhenweg,53.56192,9.792463,2,Altona
Elbphilharmonie,53.54033,9.986437,1,Hamburg-Mitte
Elbschloßstraße (Seegerichtshof),53.54914,9.85277,2,Altona
Elbuferweg,53.5543,9.820719,2,Altona
Elisabeth-von-Thadden-Kehre,53.480183,10.167457,6,Bergedorf
Ellernreihe,53.606274,10.081272,5,Wandsbek
Ellernreihe (Mitte),53.608402,10.080218,5,Wandsbek
Elversweg,53.47365,10.079426,6,Bergedorf
Emder Straße,53.52993,9.878865,1,Hamburg-Mitte
Emekesweg,53.646786,10.077192,5,Wandsbek
Emilie-Günther-Weg,53.50247,10.194776,6,Bergedorf
Emkendorfstraße,53.55561,9.890655,2,Altona
Emmauskirche,53.59013,10.10828,5,Wandsbek
Energie-Campus Bergedorf,53.477154,10.203794,6,Bergedorf
Engelbrechtweg,53.598118,9.856582,2,Altona
Entenwerder Stieg,53.53036,10.042819,1,Hamburg-Mitte
Eppendorfer Marktplatz,53.59282,9.988974,4,Hamburg-Nord
Eppendorfer Park (UKE),53.590084,9.978595,4,Hamburg-Nord
Eppendorfer Weg (Ost),53.582,9.971887,3,Eimsbüttel
Erdkampsweg (Ost),53.628128,10.024506,4,Hamburg-Nord
Erich-Ziegel-Ring,53.612106,10.063842,5,Wandsbek
Ericusspitze,53.546047,10.003195,1,Hamburg-Mitte
Erlenbruch,53.481964,9.86763,7,Harburg
Ermlandweg,53.64902,9.992316,4,Hamburg-Nord
Erna-Mohr-Kehre,53.478542,10.177353,6,Bergedorf
Ernastraße,53.518646,9.983159,1,Hamburg-Mitte
Ernst-August-Schleuse,53.524113,9.981913,1,Hamburg-Mitte
Ernst-August-Straße,53.549553,9.898283,2,Altona
Eschenhofweg,53.47138,10.232622,6,Bergedorf
Essener Straße,53.67103,9.992137,4,Hamburg-Nord
Estebogen,53.530678,9.772033,7,Harburg
Euckenstraße,53.58865,10.125415,5,Wandsbek
Eulenkamp,53.58333,10.072693,5,Wandsbek
Eulenkrugstraße,53.646393,10.158662,5,Wandsbek
Eurokombi,53.53435,9.887313,1,Hamburg-Mitte
Eva-Rühmkorf-Straße,53.561375,9.940549,2,Altona
Eversween (Mitte),53.489105,9.978603,1,Hamburg-Mitte
Eversween (Nord),53.496937,9.97598,1,Hamburg-Mitte
Eversween (Süd),53.484093,9.979391,1,Hamburg-Mitte
Fabriciusstraße,53.608536,10.067454,5,Wandsbek
Fabriciusstraße (Mitte),53.604847,10.065926,5,Wandsbek
Fabrik,53.55651,9.929546,2,Altona
Fahrenkrön,53.61935,10.096608,5,Wandsbek
Falkenstein,53.566776,9.779377,2,Altona
Falkensteiner Ufer (ElbeCamp),53.564987,9.763934,2,Altona
Falkentaler Weg,53.5595,9.790984,2,Altona
Fangdieckstraße,53.601345,9.889548,2,Altona
Fanny-Lewald-Ring,53.47667,10.176021,6,Bergedorf
Farnhornweg,53.59357,9.88292,2,Altona
Farnstieg,53.57635,9.752907,2,Altona
Fasanengrund,53.480125,10.076006,6,Bergedorf
Fehrsweg,53.631744,10.020058,4,Hamburg-Nord
Feiningerstraße,53.529747,10.14831,1,Hamburg-Mitte
Feldblumenweg,53.66459,10.106588,5,Wandsbek
Feldrosenweg,53.613884,9.885505,3,Eimsbüttel
Felix-Jud-Ring (Mitte),53.481297,10.15387,6,Bergedorf
Fersenweg,53.432858,10.158169,6,Bergedorf
Feuerbergstraße,53.614113,10.035741,4,Hamburg-Nord
Feuerteichweg,53.436478,9.966759,7,Harburg
Feuerwehrakademie,53.52669,10.07969,1,Hamburg-Mitte
Fichtestraße,53.568512,10.051441,5,Wandsbek
Fiddigshagen,53.47909,10.197514,6,Bergedorf
Fiersbarg,53.689644,10.09621,5,Wandsbek
Finkenwerder,53.53638,9.878863,1,Hamburg-Mitte
Finkenwerder (Fähre),53.535385,9.878707,1,Hamburg-Mitte
Finkenwerder Landscheideweg,53.52821,9.859799,1,Hamburg-Mitte
Fischauktionshalle,53.545147,9.951821,2,Altona
Fischbeker Heideweg,53.459026,9.851489,7,Harburg
Fischbeker Heuweg,53.47105,9.826685,7,Harburg
Fischbeker Holtweg,53.467415,9.859713,7,Harburg
Fischbeker Moor (Schule),53.473167,9.836471,7,Harburg
Fischers Allee,53.548203,9.922198,2,Altona
Fischmarkt,53.547375,9.950815,2,Altona
Fiskalische Straße (Energieberg),53.51617,10.020429,1,Hamburg-Mitte
Flachsland,53.58423,10.047256,4,Hamburg-Nord
Flerrentwiete (Nord),53.58311,9.75265,2,Altona
Flotowstraße,53.58071,10.025699,4,Hamburg-Nord
Flottbeker Drift,53.570667,9.875122,2,Altona
Flottbeker Kirche,53.565376,9.877503,2,Altona
Flurkamp,53.572758,9.864869,2,Altona
Flurstraße (Nord),53.59341,9.870321,2,Altona
Flurstraße/Rugenbarg,53.58545,9.866729,2,Altona
Flüggestraße,53.58678,10.03169,4,Hamburg-Nord
Fockenweide,53.49036,10.179022,6,Bergedorf
Fontenay,53.5648,9.994508,3,Eimsbüttel
Foorthkamp,53.656635,10.004914,4,Hamburg-Nord
Forstweg,53.459435,9.93887,7,Harburg
Forum Gymnasium Rahlstedt,53.600346,10.142642,5,Wandsbek
Foßredder,53.647533,10.172652,5,Wandsbek
Frahmredder,53.647285,10.102172,5,Wandsbek
Frahmstraße,53.56397,9.826194,2,Altona
Francoper Hinterdeich,53.496876,9.874444,7,Harburg
Francoper Straße,53.471394,9.863408,7,Harburg
Frankring,53.660297,10.156714,5,Wandsbek
Franzosenheide,53.63144,9.900204,3,Eimsbüttel
Franzosenkoppel,53.600876,9.880188,2,Altona
Freegen,53.440826,10.12937,6,Bergedorf
Freihafenelbbrücke (Süd),53.530857,10.019868,1,Hamburg-Mitte
Freiluftschule Moorwerder,53.46317,10.06198,1,Hamburg-Mitte
Freizeitbad Bondenwald,53.626163,9.937152,3,Eimsbüttel
Freizeitbad MidSommerland,53.447754,9.980908,7,Harburg
Freudenthalweg,53.43935,9.987903,7,Harburg
Frickestraße,53.59756,9.978496,4,Hamburg-Nord
Friedhof Bergedorf,53.478874,10.249981,6,Bergedorf
Friedhof Bergedorf (Kapelle 1),53.48082,10.245067,6,Bergedorf
Friedhof Finkenriek,53.47467,10.01142,1,Hamburg-Mitte
Friedhof Finkenriek (Eingang),53.47551,10.004572,1,Hamburg-Mitte
Friedhof Holstenkamp,53.57174,9.91317,2,Altona
Friedhof Neuwiedenthal,53.476295,9.869171,7,Harburg
Friedhof Nienstedten,53.555473,9.843029,2,Altona
Friedhof Ohlsdorf (Kapelle 1),53.622322,10.040431,4,Hamburg-Nord
Friedhof Ohlsdorf (Kapelle 10),53.619987,10.054807,4,Hamburg-Nord
Friedhof Ohlsdorf (Kapelle 11),53.629555,10.074908,4,Hamburg-Nord
Friedhof Ohlsdorf (Kapelle 12),53.62444,10.070365,4,Hamburg-Nord
Friedhof Ohlsdorf (Kapelle 13),53.62433,10.076589,4,Hamburg-Nord
Friedhof Ohlsdorf (Kapelle 2),53.62335,10.041137,4,Hamburg-Nord
Friedhof Ohlsdorf (Kapelle 3),53.61779,10.045987,4,Hamburg-Nord
Friedhof Ohlsdorf (Kapelle 4),53.61692,10.04184,4,Hamburg-Nord
Friedhof Ohlsdorf (Kapelle 6),53.62739,10.054659,4,Hamburg-Nord
Friedhof Ohlsdorf (Kapelle 7),53.62816,10.046908,4,Hamburg-Nord
Friedhof Ohlsdorf (Kapelle 8),53.626755,10.038273,4,Hamburg-Nord
Friedhof Ohlsdorf (Kapelle 9),53.624527,10.062659,4,Hamburg-Nord
Friedhof Tonndorf,53.583153,10.11453,5,Wandsbek
Friedhof Öjendorf (Feierhallen),53.556866,10.126424,1,Hamburg-Mitte
Friedhof Öjendorf (Haupteingang),53.557285,10.121863,1,Hamburg-Mitte
Friedhof Öjendorf (Nord-Ring),53.55901,10.125047,1,Hamburg-Mitte
Friedhof Öjendorf (Nordeingang),53.558372,10.131293,1,Hamburg-Mitte
Friedhof Öjendorf (Ost-Ring),53.554993,10.13161,1,Hamburg-Mitte
Friedhof Öjendorf (Süd-Ring),53.554207,10.123532,1,Hamburg-Mitte
Friedhof Öjendorf (Südeingang),53.553493,10.128719,1,Hamburg-Mitte
Friedmannbogen,53.477993,10.183785,6,Bergedorf
Friedrich-Ebert-Damm (Nord),53.59966,10.113515,5,Wandsbek
Friedrich-Ebert-Damm (West),53.584747,10.078587,5,Wandsbek
Friedrich-Frank-Bogen (Mitte),53.492275,10.1779,6,Bergedorf
Friedrich-Frank-Bogen (Nord),53.494118,10.179653,6,Bergedorf
Fritz-Flinte-Ring,53.61062,10.049345,5,Wandsbek
Fritz-Lindemann-Weg,53.51018,10.185451,6,Bergedorf
Fritz-Neubers-Weg,53.591393,10.039837,4,Hamburg-Nord
Frobeniusweg,53.536892,10.108909,1,Hamburg-Mitte
Frohmestraße (Mitte),53.63229,9.921362,3,Eimsbüttel
Fruchtallee (Haus),53.571354,9.956999,3,Eimsbüttel
Fruteweg,53.571377,9.75143,2,Altona
Fuchsbergredder,53.560562,10.118493,1,Hamburg-Mitte
Fuchsbergweg,53.562378,10.132502,1,Hamburg-Mitte
Fuhlsbütteler Weg,53.6223,9.954811,3,Eimsbüttel
Furchenacker,53.61697,9.897115,3,Eimsbüttel
Furtweg,53.605885,9.899207,3,Eimsbüttel
Försterkamp,53.470486,9.91649,7,Harburg
Fünfhausen,53.444756,10.130859,6,Bergedorf
Fünfhausen (Durchdeich),53.444347,10.127582,6,Bergedorf
Fünfhausener Hauptdeich,53.466446,10.045076,7,Harburg
Fünfhausener Straße,53.46302,10.049665,,
Gammer Weg (Süd),53.426937,10.273431,6,Bergedorf
Gammer Weg 146,53.44131,10.278135,6,Bergedorf
Garleff-Bindt-Weg,53.665947,10.077877,5,Wandsbek
Gartenfreunde Francoper Straße,53.4872,9.867993,7,Harburg
Gauert,53.463802,10.088422,6,Bergedorf
Gauerter Hauptdeich 35,53.46322,10.066754,6,Bergedorf
Gauerter Hauptdeich 77,53.46026,10.069977,6,Bergedorf
Geesthachter Weg,53.588425,10.17124,5,Wandsbek
Gellersenweg,53.455006,9.947574,7,Harburg
Genslerstraße,53.592922,10.038183,4,Hamburg-Nord
Georg-Blume-Straße,53.561996,10.102126,1,Hamburg-Mitte
Georg-Heyken-Straße,53.482723,9.900229,7,Harburg
Georgswerder Damm,53.52645,10.026332,1,Hamburg-Mitte
Geranienweg,53.578545,9.86606,2,Altona
Gerda-Gmelin-Platz,53.53979,10.0143,1,Hamburg-Mitte
Gerhart-Hauptmann-Platz,53.55075,9.998428,1,Hamburg-Mitte
Gerichtstraße,53.55573,9.943251,2,Altona
Gersonsweg,53.474762,10.182595,6,Bergedorf
Gerstenwiese,53.618362,10.160402,5,Wandsbek
Gertigstraße,53.581055,10.011952,4,Hamburg-Nord
Gertrud-Seele-Kehre,53.480595,10.173312,6,Bergedorf
Geutensweg,53.472324,9.839828,7,Harburg
Gewerbegebiet Moorfleet,53.50481,10.090663,6,Bergedorf
Gewerbegebiet Obergeorgswerder,53.50894,10.048051,1,Hamburg-Mitte
Gewerbepark Merkur,53.60751,10.188585,5,Wandsbek
Gewerbepark Merkur (Süd),53.603218,10.188222,5,Wandsbek
Gewerbepark Victoria,53.603565,10.193273,5,Wandsbek
Gilcherweg,53.642242,10.113457,5,Wandsbek
Ginsterstieg,53.573162,9.757545,2,Altona
Gladowstraße,53.579414,10.0751,5,Wandsbek
Glashütter Landstraße,53.64773,10.041541,5,Wandsbek
Glatzer Straße,53.579678,10.144576,5,Wandsbek
Gleiwitzer Bogen,53.57054,10.141088,5,Wandsbek
Glockenhausbrücke,53.51731,10.123746,6,Bergedorf
Gluckstraße,53.572044,10.038939,4,Hamburg-Nord
Godeffroystraße,53.560448,9.818634,2,Altona
Goebenstraße,53.57774,9.961995,3,Eimsbüttel
Goerdelerstraße,53.501442,10.210918,6,Bergedorf
Goethestraße,53.55198,9.940084,2,Altona
Goetjensorter Deich,53.49061,10.048156,1,Hamburg-Mitte
Goldbekplatz,53.583546,10.009761,4,Hamburg-Nord
Goldene Wiege (Jahnhöhe),53.458347,9.935153,7,Harburg
Goldröschenweg,53.651413,10.068508,5,Wandsbek
Gorch-Fock-Schule,53.56295,9.80184,2,Altona
Goseburg,53.471638,10.104375,6,Bergedorf
Gottschalkring,53.449753,9.966263,7,Harburg
Gottschalkweg,53.635715,9.943337,3,Eimsbüttel
Graf-Anton-Weg,53.627205,9.944259,3,Eimsbüttel
Graf-Johann-Weg,53.627934,9.919266,3,Eimsbüttel
Graf-Otto-Weg,53.64529,9.912483,3,Eimsbüttel
Graf-Otto-Weg (West),53.644413,9.908676,3,Eimsbüttel
Grandkoppel,53.503925,10.191064,6,Bergedorf
Grandkoppel (West),53.505543,10.186392,6,Bergedorf
Grandkoppelstieg,53.506092,10.191893,6,Bergedorf
Grandweg (Süd),53.585823,9.967579,3,Eimsbüttel
Grashofweg,53.453777,10.232519,6,Bergedorf
Graumannsweg,53.56197,10.016361,4,Hamburg-Nord
Greifenberger Straße,53.617027,10.135552,5,Wandsbek
Greifenberger Straße (Ost),53.618446,10.144824,5,Wandsbek
Grelckstraße,53.602417,9.953532,3,Eimsbüttel
Grenzacker,53.62009,9.892904,3,Eimsbüttel
Grenzkehre,53.416615,9.984472,7,Harburg
Gretchen-Wohlwill-Platz,53.53661,10.0174,1,Hamburg-Mitte
Grevenweg,53.550987,10.043417,1,Hamburg-Mitte
Griesstraße,53.56236,10.047138,1,Hamburg-Mitte
Grimmstraße,53.58054,9.813512,2,Altona
Grindelhof,53.567074,9.980949,3,Eimsbüttel
Grootmoor,53.632633,10.105025,5,Wandsbek
Grotefendweg,53.566544,9.827306,2,Altona
Grothwisch,53.651756,9.918695,3,Eimsbüttel
Grotiusweg (Mitte),53.56949,9.765736,2,Altona
Grotkoppelweg,53.639473,9.970108,3,Eimsbüttel
Groß Flottbeker Straße,53.569378,9.878567,2,Altona
Große Bergstraße,53.551212,9.946223,2,Altona
Große Brunnenstraße,53.5508,9.925589,2,Altona
Große Elbstraße,53.544117,9.94252,2,Altona
Große Freiheit,53.55162,9.958348,1,Hamburg-Mitte
Große Rainstraße,53.554096,9.932345,2,Altona
Große Straße,53.45052,9.923751,7,Harburg
Großer Ring,53.641098,9.925978,3,Eimsbüttel
Großheidestraße,53.58539,10.027156,4,Hamburg-Nord
Großlohe,53.602066,10.181966,5,Wandsbek
Großmannstraße,53.541145,10.048892,1,Hamburg-Mitte
Großmoorbogen,53.453045,10.006049,7,Harburg
Großmoorbogen (Neuländer See),53.460293,10.010798,7,Harburg
Großmoordamm 121,53.451687,10.009253,7,Harburg
Großmoordamm 181,53.448784,10.017704,7,Harburg
Großmoorring,53.456635,10.008633,7,Harburg
Grubenstieg,53.582172,9.857678,2,Altona
Grumbrechtstraße,53.46802,9.967958,7,Harburg
Grundheide,53.464138,9.855175,7,Harburg
Grundschule Kirchwerder,53.420425,10.202271,6,Bergedorf
Grunewaldstraße,53.581886,10.151188,5,Wandsbek
Grusonstraße,53.531895,10.080772,1,Hamburg-Mitte
Gründgensstraße (Ost),53.61382,10.066137,5,Wandsbek
Gründgensstraße (West),53.611465,10.045785,5,Wandsbek
Grüne Brücke,53.543625,10.040837,1,Hamburg-Mitte
Grünebergstraße,53.55807,9.91446,2,Altona
Grünerdeich,53.40221,10.190595,6,Bergedorf
Grüningweg,53.56013,10.101021,1,Hamburg-Mitte
Gudrunstraße,53.58894,9.760319,2,Altona
Gumbinner Kehre,53.625946,10.092365,5,Wandsbek
Gussau,53.65885,10.174872,5,Wandsbek
Gustav-Adolf-Straße,53.57101,10.08263,5,Wandsbek
Gustav-Kunst-Straße,53.537548,10.059603,1,Hamburg-Mitte
Gustav-Seitz-Weg,53.608658,10.063469,5,Wandsbek
Gut Karlshöhe,53.629005,10.107833,5,Wandsbek
Gymnasium Marienthal,53.566357,10.10713,5,Wandsbek
Gymnasium Meiendorf,53.62519,10.151308,5,Wandsbek
Gyula-Trebitsch-Schule,53.59538,10.121588,5,Wandsbek
Gärtnerstraße,53.584156,9.969533,3,Eimsbüttel
Gätgensstraße,53.5598,9.82167,2,Altona
Göhlbachtal,53.45326,9.954686,7,Harburg
Götkensweg,53.671894,10.026824,4,Hamburg-Nord
Haake,53.47107,9.901262,7,Harburg
Habichtsplatz,53.595985,10.046626,4,Hamburg-Nord
Habichtstraße (Mitte),53.591446,10.056044,4,Hamburg-Nord
Hachmannbrücke,53.52025,9.951729,1,Hamburg-Mitte
Haempten,53.511757,10.192459,6,Bergedorf
Hafen Harburg,53.46525,9.979971,7,Harburg
Hafenbahnhof Alte Süderelbe,53.502197,9.907921,7,Harburg
Hafentreppe,53.54593,9.957465,2,Altona
Haffkruger Weg,53.609104,10.150207,5,Wandsbek
Hagenbeck (Nordeingang),53.598095,9.93629,3,Eimsbüttel
Hainholzweg (Mitte),53.45071,9.930349,7,Harburg
Haithabuweg,53.4251,9.967985,7,Harburg
Halbmondsweg,53.54645,9.887807,2,Altona
Haldesdorfer Straße,53.596664,10.072275,5,Wandsbek
Haldesdorfer Straße (Nord),53.607353,10.089815,5,Wandsbek
Hallenbad Bramfeld,53.61106,10.069271,5,Wandsbek
Halstenbeker Stieg,53.616898,9.890752,3,Eimsbüttel
Halstenbeker Straße,53.62733,9.90979,3,Eimsbüttel
Hamburger Straße,53.574368,10.037215,4,Hamburg-Nord
Hammer Deich (Ost),53.545498,10.048472,1,Hamburg-Mitte
Hammer Steindamm,53.5608,10.055687,1,Hamburg-Mitte
Hammer Straße,53.568897,10.061595,5,Wandsbek
Handwerkskammer,53.553368,9.976721,1,Hamburg-Mitte
Hannoversche Straße 10,53.465782,9.994169,7,Harburg
Hans-Dewitz-Ring,53.46168,9.943959,7,Harburg
Hans-Duncker-Straße (Mitte),53.490967,10.115892,6,Bergedorf
Hans-Duncker-Straße (Nord),53.493603,10.120316,6,Bergedorf
Hans-Henny-Jahnn-Weg,53.57854,10.013975,4,Hamburg-Nord
Hans-Rubbert-Straße,53.56537,10.132627,1,Hamburg-Mitte
Hansa-Gymnasium,53.49381,10.221053,6,Bergedorf
Harburger Chaussee,53.520782,10.007594,1,Hamburg-Mitte
Harburger Ring,53.458218,9.984612,7,Harburg
Harburger Schloßstraße,53.465084,9.983311,7,Harburg
Hardauring,53.478363,9.883688,7,Harburg
Hardenbergstraße,53.565098,9.798303,2,Altona
Harmsstraße,53.454773,9.976192,7,Harburg
Harnackring,53.507843,10.210784,6,Bergedorf
Hartzloh,53.601643,10.04092,4,Hamburg-Nord
Harvestehuder Weg,53.579247,9.993911,3,Eimsbüttel
Harzensweg,53.59171,10.049894,4,Hamburg-Nord
Hasencleverstraße,53.55091,10.088364,1,Hamburg-Mitte
Haseneck,53.529896,10.137486,1,Hamburg-Mitte
Hasloher Kehre,53.679264,10.030878,4,Hamburg-Nord
Hasselwerder Straße,53.513023,9.824955,7,Harburg
Haulander Weg,53.4883,9.99001,1,Hamburg-Mitte
Haus Rissen,53.577084,9.773754,2,Altona
Haus des KFZ-Gewerbes,53.54131,10.0363,1,Hamburg-Mitte
Hausbruch,53.47177,9.893732,7,Harburg
Hausbrucher Bahnhofstraße,53.477463,9.89474,7,Harburg
Havighorster Redder (West),53.52745,10.135596,1,Hamburg-Mitte
Havighorster Weg,53.51268,10.209565,6,Bergedorf
Haynstraße,53.5862,9.983217,4,Hamburg-Nord
Hebbelstraße,53.577396,10.018568,4,Hamburg-Nord
Hebebrandstraße,53.608253,10.038676,4,Hamburg-Nord
Heckende,53.606964,10.173597,5,Wandsbek
Heckkaten,53.490093,10.18932,6,Bergedorf
Heerbrook,53.579716,9.830044,2,Altona
Heestweg,53.602028,10.149214,5,Wandsbek
Hegholt,53.60118,10.080764,5,Wandsbek
Heideblütenweg,53.464527,9.81245,7,Harburg
Heidemoor,53.482265,9.861113,7,Harburg
Heidkamp,53.659676,10.059761,5,Wandsbek
Heidkampsredder,53.506763,10.199283,6,Bergedorf
Heidrand,53.465446,9.865787,7,Harburg
Heidschnuckenring,53.466087,9.815747,7,Harburg
Heimfelder Straße 123,53.461025,9.940527,7,Harburg
Heimgarten,53.67351,10.056961,5,Wandsbek
Hein-Baxmann-Stieg,53.512962,10.083667,6,Bergedorf
Hein-Hoyer-Straße,53.55127,9.961735,1,Hamburg-Mitte
Hein-Saß-Stieg (ZAL),53.535454,9.866808,1,Hamburg-Mitte
Heinrich-Helbing-Straße,53.594784,10.060628,5,Wandsbek
Heinrich-Hertz-Turm,53.56459,9.976376,3,Eimsbüttel
Heinrich-Osterath-Straße (Mitte),53.455177,10.147787,6,Bergedorf
Heinrich-Osterath-Straße (Ost),53.444057,10.173554,6,Bergedorf
Heinrich-Osterath-Straße 241,53.456272,10.141508,6,Bergedorf
Heinrich-Schulz-Weg,53.598705,10.18009,5,Wandsbek
Heinrich-Stubbe-Weg,53.445156,10.229394,6,Bergedorf
Heinrich-Traun-Platz,53.633472,10.034402,4,Hamburg-Nord
Helbingtwiete,53.587685,10.092888,5,Wandsbek
Hellbrookkamp,53.597733,10.060656,5,Wandsbek
Hellbrookstraße,53.591404,10.044449,4,Hamburg-Nord
Hellgrundweg (Arenen),53.592785,9.898838,2,Altona
Hellmesbergerweg,53.63036,10.179295,5,Wandsbek
Helvetierweg,53.626957,9.959013,3,Eimsbüttel
Hemmingstedter Weg,53.566257,9.866412,2,Altona
Henriette-Herz-Ring,53.4841,10.172099,6,Bergedorf
Herbert-Pardo-Weg,53.48482,10.151796,6,Bergedorf
Herderstraße,53.58047,10.01917,4,Hamburg-Nord
Herkenkrug,53.64575,10.182311,5,Wandsbek
Hermann-Balk-Straße,53.624123,10.140428,5,Wandsbek
Hermann-Distel-Straße,53.494865,10.220691,6,Bergedorf
Hermann-Kauffmann-Straße,53.594273,10.044076,4,Hamburg-Nord
Hermann-Wüsthof-Ring (Ost),53.493282,10.111206,6,Bergedorf
Hermann-Wüsthof-Ring (West),53.497387,10.101669,6,Bergedorf
Hermelinweg,53.616184,10.122004,5,Wandsbek
Herthastraße,53.611984,10.074552,5,Wandsbek
Herwigredder,53.576794,9.764359,2,Altona
Herzog-Bruno-Weg,53.62548,9.947044,3,Eimsbüttel
Heselstücken,53.61875,9.999509,4,Hamburg-Nord
Heuckenlock,53.476166,10.03923,1,Hamburg-Mitte
Heukoppel,53.611526,10.080313,5,Wandsbek
Heulandhagen,53.480625,10.187293,6,Bergedorf
Hexentwiete,53.584843,9.765606,2,Altona
Heykenaubrook,53.471916,9.918509,7,Harburg
Heykenaukamp,53.47898,9.905361,7,Harburg
Heykenaukamp (Kehre),53.477997,9.909482,7,Harburg
Heykenauweg (Nord),53.481728,9.904546,7,Harburg
Heykenauweg (Süd),53.47937,9.901347,7,Harburg
Heykenstieg,53.481956,9.906509,7,Harburg
Hilda-Monte-Weg,53.482384,10.170395,6,Bergedorf
Hindenburgstraße,53.608932,10.01147,4,Hamburg-Nord
Hinsbleek,53.65122,10.078623,5,Wandsbek
Hinter der Dorfkirche,53.490402,10.008555,1,Hamburg-Mitte
Hinter der Lieth,53.60593,9.95565,3,Eimsbüttel
Hirschgraben,53.563866,10.044489,5,Wandsbek
Hitscherberg,53.437504,10.197285,6,Bergedorf
Hochrad,53.55375,9.876296,2,Altona
Hoffmann-von-Fallersleben-Straße,53.481873,10.230245,6,Bergedorf
Hoffmannstieg,53.60331,10.179795,5,Wandsbek
Hofschläger Deich,53.486214,10.054586,6,Bergedorf
Hogrevestraße,53.576965,10.072713,5,Wandsbek
Hohe Liedt,53.669853,10.025942,4,Hamburg-Nord
Hohe Schaar,53.480106,9.982674,1,Hamburg-Mitte
Hohe-Schaar-Kamp,53.49644,9.970589,1,Hamburg-Mitte
Hohedeich,53.44076,10.117163,6,Bergedorf
Hohedeich (Feuerwehr),53.44163,10.111422,6,Bergedorf
Hohendeicher See (Nord),53.449432,10.09972,6,Bergedorf
Hohenesch,53.554695,9.928601,2,Altona
Hohenkamp,53.605965,10.146133,5,Wandsbek
Hohenwisch (Kehre),53.502552,9.877334,7,Harburg
Hohenwischer Straße 101,53.507107,9.876117,7,Harburg
Hohenwischer Straße 123,53.508995,9.869946,7,Harburg
Hohenwischer Straße 149,53.508408,9.865517,7,Harburg
Hohenwischer Straße 20,53.499924,9.884287,7,Harburg
Hohenwischer Straße 223,53.50826,9.853998,7,Harburg
Hohenzollernring,53.54864,9.916308,2,Altona
Hohenzollernring (Süd),53.546032,9.915739,2,Altona
Hohnerkamp,53.61797,10.089439,5,Wandsbek
Hohnerkamp (Mitte),53.623566,10.090399,5,Wandsbek
Holsteiner Tor,53.569855,10.149249,5,Wandsbek
Holsteinischer Kamp,53.575806,10.048784,4,Hamburg-Nord
Holstenkamp (West),53.573112,9.908836,2,Altona
Holtbarg,53.583614,9.822495,2,Altona
Holtenklinke,53.4779,10.240433,6,Bergedorf
Holzmühlenstraße,53.576694,10.082897,5,Wandsbek
Holztwiete,53.547108,9.874152,2,Altona
Homannring,53.447598,10.124056,6,Bergedorf
Horner Brückenweg,53.545338,10.088853,1,Hamburg-Mitte
Horner Rampe,53.54743,10.084819,1,Hamburg-Mitte
Horner Redder,53.55242,10.102993,1,Hamburg-Mitte
Horster Damm,53.461903,10.271616,6,Bergedorf
Horster Moor,53.452038,10.286631,6,Bergedorf
Hovestraße (Kehre),53.51642,10.049789,1,Hamburg-Mitte
Hovestraße 44,53.522697,10.030417,1,Hamburg-Mitte
Hovestraße 49,53.51989,10.039109,1,Hamburg-Mitte
Hovestraße 68,53.517776,10.045601,1,Hamburg-Mitte
Howe,53.420074,10.148344,6,Bergedorf
Howe (Ost),53.41149,10.152309,6,Bergedorf
Hower Brack,53.418453,10.150693,6,Bergedorf
Hower Hauptdeich,53.416252,10.148693,6,Bergedorf
Hufnerstraße,53.582886,10.041349,4,Hamburg-Nord
Hummelsbüttler Hauptstraße,53.640923,10.037049,5,Wandsbek
Huusbarg (Mitte),53.64353,10.176548,5,Wandsbek
Huusbarg (West),53.644264,10.171578,5,Wandsbek
Händelstraße,53.562263,9.905646,2,Altona
Högenkamp,53.6569,10.060735,5,Wandsbek
Högenstraße,53.580765,9.938519,3,Eimsbüttel
Höpengrund,53.42471,9.993279,7,Harburg
Höpenstraße,53.44169,10.003428,7,Harburg
Höperfeld,53.495865,10.199126,6,Bergedorf
Hövelbrook,53.507313,10.022477,1,Hamburg-Mitte
Hübbesweg,53.554543,10.061356,1,Hamburg-Mitte
Hüllenkamp,53.587673,10.15491,5,Wandsbek
Hültkoppel,53.65303,10.140573,5,Wandsbek
IKEA Moorfleet,53.511448,10.09617,6,Bergedorf
IKEA Schnelsen,53.647606,9.927058,3,Eimsbüttel
Ida-Boy-Ed-Straße,53.483883,10.230635,6,Bergedorf
Ida-Ehre-Allee,53.6248,10.054806,4,Hamburg-Nord
Iland,53.66458,10.119992,5,Wandsbek
Ilsenweg,53.65875,10.107388,5,Wandsbek
Im Allhorn,53.653923,10.174599,5,Wandsbek
Im Fischbeker Heidbrook (Ost),53.46783,9.814034,7,Harburg
Im Fischbeker Heidbrook (West),53.466835,9.810175,7,Harburg
Im Schönenfelde,53.500286,10.018119,1,Hamburg-Mitte
Im Vogelkamp,53.478268,9.850715,7,Harburg
Immenbusch,53.583908,9.85341,2,Altona
Immenseeweg,53.59437,10.174834,5,Wandsbek
In der Hörn,53.474243,10.194811,6,Bergedorf
In der Ohe-Nord,53.41944,10.204404,6,Bergedorf
Indiastraße,53.526787,9.994521,1,Hamburg-Mitte
Industriestraße,53.517014,9.982141,1,Hamburg-Mitte
Informatikum,53.59768,9.931825,3,Eimsbüttel
Inselpark,53.4973,10.003847,1,Hamburg-Mitte
Inselstraße,53.606792,9.993138,4,Hamburg-Nord
Isfeldstraße,53.573772,9.837022,2,Altona
Isoldeweg,53.586395,9.743482,2,Altona
Israelitisches Krankenhaus,53.605537,9.989543,4,Hamburg-Nord
Iversstraße,53.58173,10.09364,5,Wandsbek
Jaarsmoor,53.60856,9.89112,3,Eimsbüttel
Jahnbrücke,53.601624,10.035632,4,Hamburg-Nord
Jahnring (Mitte),53.59984,10.013685,4,Hamburg-Nord
Jakobikirchhof,53.550068,10.000726,1,Hamburg-Mitte
Jarrestraße (Kampnagel),53.583958,10.020477,4,Hamburg-Nord
Jasminweg,53.61474,9.88037,3,Eimsbüttel
Jean-Dolidier-Weg,53.438015,10.233552,6,Bergedorf
Jeanette-Wolff-Ring,53.477905,10.173314,6,Bergedorf
Jenfeld-Zentrum,53.57092,10.135845,5,Wandsbek
Jenfelder Allee,53.575085,10.126969,5,Wandsbek
Jenfelder Straße,53.574036,10.135139,5,Wandsbek
Jevenstedter Straße,53.60048,9.873986,2,Altona
Jeverländer Weg,53.52792,9.880754,1,Hamburg-Mitte
Jochim-Sahling-Weg,53.576385,9.851069,2,Altona
Johannes-Brahms-Platz,53.555004,9.978751,1,Hamburg-Mitte
Johanneskirche Rissen,53.58055,9.762388,2,Altona
Johannssenstegel,53.42393,10.139769,6,Bergedorf
Johnsallee,53.565918,9.988879,3,Eimsbüttel
Josephstraße,53.57279,10.079626,5,Wandsbek
Julius-Reincke-Stieg (Bethanien),53.591953,9.982928,4,Hamburg-Nord
Julius-Vosseler-Straße,53.590492,9.946875,3,Eimsbüttel
Jungestraße,53.556187,10.027172,1,Hamburg-Mitte
Justus-Brinckmann-Straße,53.481377,10.232084,6,Bergedorf
Jägerhof,53.4712,9.888569,7,Harburg
Jägerlauf,53.603073,9.967732,3,Eimsbüttel
Jütländer Allee,53.601406,9.931333,3,Eimsbüttel
KZ-Gedenkstätte (Ausstellung),53.427967,10.226686,6,Bergedorf
KZ-Gedenkstätte (Klinkerwerk),53.4324,10.229838,6,Bergedorf
KZ-Gedenkstätte (Mahnmal),53.43498,10.231688,6,Bergedorf
Kahlkamp,53.560177,9.803539,2,Altona
Kaiser-Friedrich-Ufer,53.573044,9.964872,3,Eimsbüttel
Kalckreuthweg (Mitte),53.56516,9.887369,2,Altona
Kaltehofe-Hinterdeich,53.526882,10.046036,1,Hamburg-Mitte
Kaltenkircher Platz,53.563633,9.94155,2,Altona
Kamerstücken,53.581795,9.811362,2,Altona
Kamerunweg,53.527096,9.986084,1,Hamburg-Mitte
Kamerunweg (Kehre),53.530907,9.986052,1,Hamburg-Mitte
Kanalplatz,53.46656,9.984128,7,Harburg
Kandinskyallee (Nord),53.532936,10.1509,1,Hamburg-Mitte
Kantstraße,53.569717,10.053011,5,Wandsbek
Kanzlershofer Weg,53.4478,10.023415,7,Harburg
Kanzlerstraße,53.439724,10.006361,7,Harburg
Kap-Horn-Weg,53.534645,9.874182,1,Hamburg-Mitte
Kapstadtring,53.605434,10.025256,4,Hamburg-Nord
Karkenland,53.416946,10.197084,6,Bergedorf
Karl-Arnold-Ring,53.486,10.016903,1,Hamburg-Mitte
Karl-Müller-Ring,53.602898,10.078235,5,Wandsbek
Karl-Rüther-Stieg,53.489677,10.153344,6,Bergedorf
Karlshöhe,53.623566,10.111,5,Wandsbek
Karlshöher Weg,53.631535,10.137786,5,Wandsbek
Karstenstraße,53.565483,9.801088,2,Altona
Kasernenstraße (TU ),53.463867,9.969655,7,Harburg
Kaskadenpark,53.581352,10.132028,5,Wandsbek
Katendeich,53.476807,10.192081,6,Bergedorf
Kattensteert,53.549828,10.099567,1,Hamburg-Mitte
Kattwykdamm,53.493137,9.975517,1,Hamburg-Mitte
Katzbachstraße,53.601097,9.884316,2,Altona
Kedenburgstraße,53.574997,10.087654,5,Wandsbek
Keltenweg,53.64538,9.957526,3,Eimsbüttel
Kiebitzbrack,53.410957,10.236393,6,Bergedorf
Kiebitzdeich (Mitte),53.415222,10.226139,6,Bergedorf
Kiebitzdeich (West),53.425068,10.215079,6,Bergedorf
Kiebitzdeich 154,53.413933,10.231666,6,Bergedorf
Kielkoppelstraße,53.589733,10.167592,5,Wandsbek
Kielmannseggstraße,53.573093,10.092345,5,Wandsbek
Kienenhagen,53.48384,10.188518,6,Bergedorf
Kienholt,53.62122,10.104319,5,Wandsbek
Kinderkrankenhaus Wilhelmstift,53.589222,10.161159,5,Wandsbek
Kirchdorf (Süd),53.48451,10.018886,1,Hamburg-Mitte
Kirchdorfer Straße (Museum Elbinsel),53.490986,10.019041,1,Hamburg-Mitte
Kirchenheerweg,53.404305,10.186022,6,Bergedorf
Kirchhofsweg,53.48373,10.220657,6,Bergedorf
Kirchlinden,53.541676,10.101899,1,Hamburg-Mitte
Kirchsteinbek,53.529865,10.129206,1,Hamburg-Mitte
Kirchwerder Hausdeich (Mitte),53.43079,10.1983,6,Bergedorf
Kirchwerder Hausdeich (West),53.440807,10.184029,6,Bergedorf
Kirchwerder Hausdeich 404,53.414806,10.206168,6,Bergedorf
Kirchwerder Kirche,53.418648,10.199508,6,Bergedorf
Kirchwerder Landweg 182,53.449253,10.180381,6,Bergedorf
Kirchwerder Landweg 70,53.4575,10.19163,6,Bergedorf
Kirchwerder Mühlendamm,53.412292,10.210413,6,Bergedorf
Kirchwerder Schulweg,53.429996,10.134018,6,Bergedorf
Kirschenallee,53.624504,10.073223,4,Hamburg-Nord
Kirschgarten,53.50264,10.197358,6,Bergedorf
Kirschtenstraße,53.56242,9.807459,2,Altona
Klaus-Schaumann-Straße,53.477245,10.189292,6,Bergedorf
Klgv Rothenhauschaussee,53.47354,10.255382,6,Bergedorf
Klinikum Nord (Heidberg),53.67486,10.028077,4,Hamburg-Nord
Klinikum Nord (Ochsenzoll),53.672184,10.002394,4,Hamburg-Nord
Klotzenmoor (Mitte),53.60916,9.9836,4,Hamburg-Nord
Klärwerk Dradenau,53.518414,9.914253,1,Hamburg-Mitte
Klövensteenweg (Mitte),53.58938,9.76303,2,Altona
Klövensteenweg (Süd),53.582474,9.764235,2,Altona
Knabeweg,53.571938,9.856218,2,Altona
Knappe Böge,53.612385,10.015512,4,Hamburg-Nord
Kneidenweg,53.500744,10.072429,6,Bergedorf
Kneienblick,53.533966,9.864923,1,Hamburg-Mitte
Knoopstraße/Bremer Straße,53.45735,9.979579,7,Harburg
Kohövedstraße,53.608776,10.144335,5,Wandsbek
Konsul-Ritter-Straße,53.470413,9.972214,7,Harburg
Korachstraße,53.51067,10.198489,6,Bergedorf
Koreastraße,53.543526,10.002155,1,Hamburg-Mitte
Kornweide,53.481792,9.993609,1,Hamburg-Mitte
Kottwitzstraße,53.580727,9.964684,3,Eimsbüttel
Kraftwerk Tiefstack,53.52713,10.06913,1,Hamburg-Mitte
Krankenhaus Groß-Sand,53.506,9.986106,1,Hamburg-Mitte
Krankenhaus Mariahilf,53.47106,9.937315,7,Harburg
Krankenhaus Tabea,53.56538,9.790777,2,Altona
Krapphofschleuse,53.46814,10.189519,6,Bergedorf
Krapphofstraße,53.47519,10.188225,6,Bergedorf
Kraueler Hauptdeich,53.397964,10.234527,6,Bergedorf
Kraueler Hauptdeich 261,53.4027,10.241671,6,Bergedorf
Krausestraße,53.580025,10.057268,4,Hamburg-Nord
Kressenweg,53.58641,9.87285,2,Altona
Kreuzbrook,53.546387,10.045476,1,Hamburg-Mitte
Kreuzfahrtterminal Altona,53.544193,9.936397,2,Altona
Kreuzfahrtterminal Steinwerder,53.526833,9.967744,1,Hamburg-Mitte
Kreuzkirche Kirchdorf,53.486866,10.015462,1,Hamburg-Mitte
Kreuzkirche Ottensen,53.55385,9.916783,2,Altona
Krieterstraße,53.496258,10.009795,1,Hamburg-Mitte
Kroogblöcke,53.552437,10.097185,1,Hamburg-Mitte
Krumdal,53.558075,9.797582,2,Altona
Krummer Hagen,53.40626,10.207701,6,Bergedorf
Krähenhorst,53.56817,9.793123,2,Altona
Krähenweg,53.630444,9.962085,3,Eimsbüttel
Krögers Treppe (Fischerhaus),53.558456,9.8034,2,Altona
Kuehnstraße,53.58224,10.126555,5,Wandsbek
Kunsthalle,53.555622,10.000645,1,Hamburg-Mitte
Kurfürstendeich,53.466446,10.201805,6,Bergedorf
Kurfürstenstraße,53.57909,10.096999,5,Wandsbek
Kurt-A.-Körber-Chaussee (Mitte),53.489132,10.19303,6,Bergedorf
Kurt-A.-Körber-Chaussee (Ost),53.488926,10.198357,6,Bergedorf
Kurt-Schumacher-Allee,53.551907,10.01622,1,Hamburg-Mitte
Kurzer Kamp,53.636696,10.03374,4,Hamburg-Nord
Kälbersteert,53.44196,10.194536,6,Bergedorf
Köhlbrandhöft (nur für Betriebsangehörige),53.53996,9.93656,1,Hamburg-Mitte
König-Georg-Deich,53.477722,9.995773,1,Hamburg-Mitte
Königsberger Straße,53.623173,10.084102,5,Wandsbek
Köpenicker Straße,53.584515,10.133296,5,Wandsbek
Köppenstraße,53.607265,9.978555,4,Hamburg-Nord
Künnekestraße,53.635883,10.178663,5,Wandsbek
Küstersweg,53.437378,10.004204,7,Harburg
Lademannbogen,53.648697,10.036877,5,Wandsbek
Lademannbogen (Ost),53.647816,10.037072,5,Wandsbek
Lademannbogen (Süd),53.642822,10.028612,5,Wandsbek
Lademannbogen (West),53.64782,10.0325,5,Wandsbek
Lademannbogen 51,53.643276,10.030937,5,Wandsbek
Landahlweg,53.65609,10.060912,5,Wandsbek
Langbargheide (Nord),53.59887,9.887009,2,Altona
Langbargheide (Süd),53.593174,9.891264,2,Altona
Langelohstraße (Nord),53.572834,9.84659,2,Altona
Langenberg,53.439552,9.941376,7,Harburg
Langenfelder Damm,53.58275,9.935226,3,Eimsbüttel
Langenfelder Damm (Kieler Straße),53.583454,9.933611,3,Eimsbüttel
Langenfelder Straße,53.568977,9.944129,2,Altona
Langenfort,53.59977,10.050738,4,Hamburg-Nord
Langenrehm,53.582756,10.046873,4,Hamburg-Nord
Langer Hagen,53.535908,10.065309,1,Hamburg-Mitte
Langkamp,53.563026,9.864822,2,Altona
Langobardenweg,53.63483,9.966645,3,Eimsbüttel
Lapplandring,53.630463,10.168822,5,Wandsbek
Lauenbruch Ost,53.472675,9.982447,7,Harburg
Lauensteinstraße,53.600113,10.036063,4,Hamburg-Nord
Lawaetzhaus,53.544315,9.920333,2,Altona
Lederstraße,53.589584,9.907423,3,Eimsbüttel
Leeschenblick,53.614944,10.071938,5,Wandsbek
Leharstraße,53.629875,10.145995,5,Wandsbek
Lehfeld,53.48053,10.207827,6,Bergedorf
Lemsahler Dorfstraße,53.685856,10.102851,5,Wandsbek
Lentersweg,53.639202,10.028524,5,Wandsbek
Lerchenberg,53.653305,10.168713,5,Wandsbek
Leuteritzweg,53.658863,10.060044,5,Wandsbek
Leverkusenstraße,53.565464,9.925643,2,Altona
Lichtenauerweg,53.455147,9.945349,7,Harburg
Lichtheimweg,53.565975,9.783664,2,Altona
Liebermannstraße,53.54587,9.900106,2,Altona
Liebezeitstraße,53.542805,10.118704,1,Hamburg-Mitte
Liebigstraße (Mitte),53.532497,10.096216,1,Hamburg-Mitte
Liedenkummer Bogen,53.52418,9.778429,7,Harburg
Liegnitzer Straße,53.580185,10.137659,5,Wandsbek
Lienaustraße,53.627064,10.12317,5,Wandsbek
Liliencronpark,53.600857,10.153079,5,Wandsbek
Lilo-Gloeden-Kehre,53.47878,10.170506,6,Bergedorf
Lily-Braun-Straße,53.48704,10.173838,6,Bergedorf
Lisbeth-Bruhn-Straße,53.485332,10.172931,6,Bergedorf
Lohbrügger Kirchstraße,53.49865,10.202776,6,Bergedorf
Lohbrügger Markt,53.49486,10.207626,6,Bergedorf
Lohbrügger Weg,53.501583,10.205723,6,Bergedorf
Lohe,53.70863,10.105972,5,Wandsbek
Lohengrinweg,53.587593,9.753001,2,Altona
Loher Straße,53.59397,10.144977,5,Wandsbek
Lohkamp,53.531284,10.122638,1,Hamburg-Mitte
Lohkampstraße 45,53.609913,9.898915,3,Eimsbüttel
Lohkoppelweg,53.59218,9.954192,3,Eimsbüttel
Lohmannsweg,53.46409,9.956636,7,Harburg
Lokstedter Weg,53.59572,9.983997,4,Hamburg-Nord
Lola-Rogge-Platz,53.53759,10.013297,1,Hamburg-Mitte
Luckmoor,53.596996,9.86535,2,Altona
Luetkensallee,53.57433,10.099035,5,Wandsbek
Lufthansa-Basis,53.620575,9.997512,4,Hamburg-Nord
Lufthansa-Basis (Haupteingang),53.62157,9.996916,4,Hamburg-Nord
Luisen-Gymnasium,53.49209,10.227633,6,Bergedorf
Luisenweg,53.54821,10.046547,1,Hamburg-Mitte
Luruper Chaussee (DESY),53.57629,9.888856,2,Altona
Lämmersieth (Mitte),53.584778,10.053295,4,Hamburg-Nord
Lämmersieth (Nord),53.58891,10.061372,4,Hamburg-Nord
Lärchenallee,53.622208,10.073618,4,Hamburg-Nord
Löwenstraße (Facharztklinik),53.587326,9.971736,4,Hamburg-Nord
Lübbersweg,53.455948,9.955369,7,Harburg
Lüdersring,53.596848,9.885315,2,Altona
Lühmannstraße,53.45773,9.947033,7,Harburg
Lürade,53.425484,9.93085,7,Harburg
Lürader Weg,53.4218,9.929837,7,Harburg
Lütjenburg (Kirchwerder),53.40049,10.168565,6,Bergedorf
Lütte Stegel,53.445213,10.224835,6,Bergedorf
Lüttmattensteed,53.459244,9.866443,7,Harburg
Lüttwetter,53.434944,10.276017,6,Bergedorf
Madacker,53.686977,10.106948,5,Wandsbek
Magellan-Terrassen,53.542484,9.993321,1,Hamburg-Mitte
Maienweg,53.62116,10.025471,4,Hamburg-Nord
Maike-Harder-Weg,53.666023,10.09024,5,Wandsbek
Maisredder,53.62732,10.085444,5,Wandsbek
Majestätische Aussicht,53.453876,9.92542,7,Harburg
Maler- und Lackierer-Museum,53.52148,10.118775,6,Bergedorf
Manilabrücke,53.6071,10.022425,4,Hamburg-Nord
Mannesallee,53.51477,9.98725,1,Hamburg-Mitte
Manshardtstraße,53.55731,10.115721,1,Hamburg-Mitte
Mansteinstraße,53.57865,9.965784,3,Eimsbüttel
Marco-Polo-Terrassen,53.540405,9.993709,1,Hamburg-Mitte
Maretstraße (Bürgerzentrum),53.452206,9.982787,7,Harburg
Margit-Zinke-Straße (Nord),53.48879,10.166036,6,Bergedorf
Maria-Louisen-Straße,53.58687,10.002396,4,Hamburg-Nord
Marie-Henning-Weg,53.484528,10.154289,6,Bergedorf
Marienkrankenhaus,53.56076,10.034301,4,Hamburg-Nord
Marienkäferweg,53.42538,9.964351,7,Harburg
Marktkanal,53.5275,10.025482,1,Hamburg-Mitte
Marlowring,53.573105,9.925351,2,Altona
Marmstorfer Kirche,53.439407,9.967503,7,Harburg
Marmstorfer Weg (Nord),53.451782,9.971969,7,Harburg
Marner Straße,53.58682,10.10404,5,Wandsbek
Marschbahndamm,53.428616,10.154458,6,Bergedorf
Marschkamper Deich,53.51503,9.794452,7,Harburg
Marschkamper Deich 72,53.5202,9.799433,7,Harburg
Marschweg (Kehre),53.584423,9.778086,2,Altona
Martensallee,53.59066,10.134044,5,Wandsbek
Marxsenweg,53.555214,9.865175,2,Altona
Mattkamp,53.545822,10.126478,1,Hamburg-Mitte
Max-Brauer-Allee (Mitte),53.55859,9.949452,2,Altona
Max-Eichholz-Ring,53.50453,10.218241,6,Bergedorf
Max-Klinger-Straße,53.52981,10.144361,1,Hamburg-Mitte
Max-Tau-Straße,53.592262,9.951083,3,Eimsbüttel
Maybachstraße,53.598137,10.056316,5,Wandsbek
Mehrenskamp,53.53446,10.121244,1,Hamburg-Mitte
Mehringweg,53.456825,9.960131,7,Harburg
Mellande,53.641674,10.105852,5,Wandsbek
Mellingburgredder,53.668365,10.106127,5,Wandsbek
Mendelstraße,53.51143,10.186345,6,Bergedorf
Mengestraße,53.50081,9.991462,1,Hamburg-Mitte
Mensingstraße,53.44274,9.996986,7,Harburg
Mergenthalerweg,53.61333,9.895935,3,Eimsbüttel
Meriandamm,53.552174,10.111241,1,Hamburg-Mitte
Merlingasse,53.47601,9.846121,7,Harburg
Mesterbrooksweg,53.704975,10.102969,5,Wandsbek
Michael-Pritzl-Weg,53.481007,10.156859,6,Bergedorf
Michaeliskirche,53.549248,9.978527,1,Hamburg-Mitte
Minsbekweg,53.655983,10.076982,5,Wandsbek
Mittelallee,53.622856,10.057176,4,Hamburg-Nord
Mittlerer Landweg (Nord),53.502396,10.139613,6,Bergedorf
Mittlerer Landweg (Süd),53.488823,10.119075,6,Bergedorf
Modering,53.63779,9.920523,3,Eimsbüttel
Mohnhof,53.486275,10.213785,6,Bergedorf
Moltrechtweg,53.615936,10.007543,4,Hamburg-Nord
Moorburger Alter Deich,53.499043,9.891261,7,Harburg
Moorburger Bogen,53.474487,9.950599,7,Harburg
Moorburger Elbdeich 227,53.493362,9.931735,7,Harburg
Moorburger Elbdeich 273,53.495052,9.922158,7,Harburg
Moorburger Elbdeich 297,53.49517,9.91865,7,Harburg
Moorburger Elbdeich 379,53.498005,9.901457,7,Harburg
Moorburger Kirchdeich,53.48985,9.936388,7,Harburg
Moorburger Kirche,53.48963,9.94131,7,Harburg
Moorburger Kreuzung,53.495693,9.910303,7,Harburg
Moorburger Ring,53.480686,9.873072,7,Harburg
Moorburger Straße,53.473034,9.958232,7,Harburg
Moorfleet,53.511917,10.088042,1,Hamburg-Mitte
Moorfleet (Châu-und-Lân-Straße),53.51246,10.088725,1,Hamburg-Mitte
Moorfleet (Feuerwehr),53.512054,10.086659,6,Bergedorf
Moorfleeter Brückenstraße,53.50107,10.081178,6,Bergedorf
Moorfleeter Deich,53.518158,10.069462,6,Bergedorf
Moorfleeter Deich (Ost),53.484882,10.116109,6,Bergedorf
Moorfleeter Deich 344,53.495667,10.091393,6,Bergedorf
Moorfleeter Deich 380,53.4922,10.092298,6,Bergedorf
Moorfleeter Deich 427,53.487602,10.094922,6,Bergedorf
Moorfleeter Hauptdeich,53.500988,10.079217,6,Bergedorf
Moorfleeter Kirchenweg,53.51339,10.08018,6,Bergedorf
Moorfleeter Straße (Mitte),53.529713,10.094546,1,Hamburg-Mitte
Moorfleeter Straße (Nord),53.536057,10.09842,1,Hamburg-Mitte
Moorfleeter Straße (Süd),53.522343,10.088852,1,Hamburg-Mitte
Moorlage,53.429314,9.972359,7,Harburg
Moorrand,53.64306,9.972382,3,Eimsbüttel
Moorredder,53.6592,10.182506,5,Wandsbek
Moorstraße (Phoenix-Center),53.456917,9.986464,7,Harburg
Moorwerder Hauptdeich 35,53.465965,10.055695,1,Hamburg-Mitte
Moorwerder Hauptdeich 69,53.47267,10.046389,1,Hamburg-Mitte
Moorwerder Mühle,53.470676,10.060526,1,Hamburg-Mitte
Moorwerder Norderdeich (Fußweg),53.476402,10.058229,1,Hamburg-Mitte
Moorwerder Norderdeich (Ost),53.473682,10.0603,1,Hamburg-Mitte
Moorwerder Osterdeich,53.46781,10.060605,1,Hamburg-Mitte
Moosberg (Pflegezentrum),53.498,10.182067,6,Bergedorf
Moränenweg,53.610836,10.163686,5,Wandsbek
Mozartstraße,53.57838,10.021837,4,Hamburg-Nord
Mundsburger Brücke,53.56557,10.019747,4,Hamburg-Nord
Museum am Rothenbaum,53.56795,9.988378,3,Eimsbüttel
Museum für Hamburgische Geschichte,53.550488,9.974014,1,Hamburg-Mitte
Musäusstraße,53.580456,9.816605,2,Altona
Mörkenstraße,53.54944,9.945822,2,Altona
Müggenburger Schleuse,53.512684,10.055266,1,Hamburg-Mitte
Müggenburger Straße,53.51164,10.052761,1,Hamburg-Mitte
Mühlenauweg,53.604744,9.909637,3,Eimsbüttel
Mühlenberg,53.56076,9.822972,2,Altona
Mühlenhagen,53.53658,10.067452,1,Hamburg-Mitte
Mühlenredder,53.710743,10.129836,5,Wandsbek
Münterweg,53.527462,10.144674,1,Hamburg-Mitte
Müssenredder (Mitte),53.655422,10.073147,5,Wandsbek
Nachtigallenweg,53.45133,9.947899,7,Harburg
Nagelshof,53.581722,9.752112,2,Altona
Nagelstegel,53.456165,10.080413,6,Bergedorf
Naturschutzgebiet Höltigbaum,53.611244,10.183477,5,Wandsbek
Neckersstücken,53.47135,9.819899,7,Harburg
Nedderfeld,53.603245,9.96197,3,Eimsbüttel
Nedderfeld (Anscharhöhe),53.60097,9.984195,4,Hamburg-Nord
Nedderfeld (Kehre),53.603867,9.963006,3,Eimsbüttel
Nedderfeld Center,53.601685,9.973999,4,Hamburg-Nord
Neesentwiete,53.40996,10.171983,6,Bergedorf
Nehlsstraße,53.53008,9.96964,1,Hamburg-Mitte
Neißestraße,53.60705,9.864981,2,Altona
Nektarweg,53.63731,10.13339,5,Wandsbek
Nesselstraße,53.618214,10.019717,4,Hamburg-Nord
Nettelnburger Kirchenweg,53.48018,10.182776,6,Bergedorf
Nettelnburger Landweg (Süd),53.471157,10.174588,6,Bergedorf
Nettelnburger Landweg 192,53.475792,10.177509,6,Bergedorf
Nettelnburger Straße,53.476326,10.195802,6,Bergedorf
Nettelnburger Straße (Mitte),53.47743,10.187384,6,Bergedorf
Neue Bullerrinne,53.530746,9.847936,1,Hamburg-Mitte
Neue Wöhr,53.598976,10.041549,4,Hamburg-Nord
Neuenfelder Damm,53.53,9.805228,7,Harburg
Neuenfelder Fährdeich (Ost),53.52839,9.79728,7,Harburg
Neuenfelder Kirche,53.52399,9.810271,7,Harburg
Neuenfelder Straße (Schule),53.493584,10.012946,1,Hamburg-Mitte
Neuengammer Elbdeich,53.422535,10.257338,6,Bergedorf
Neuengammer Hauptdeich,53.417343,10.252748,6,Bergedorf
Neuengammer Hausdeich 310,53.449093,10.214591,6,Bergedorf
Neuengammer Hausdeich 331,53.451138,10.214875,6,Bergedorf
Neuengammer Hausdeich 351,53.45323,10.213896,6,Bergedorf
Neuengammer Hausdeich 421,53.45785,10.205687,6,Bergedorf
Neuengammer Hausdeich 490,53.463078,10.198291,6,Bergedorf
Neuengammer Hausdeich 52,53.42648,10.249601,6,Bergedorf
Neuengammer Heerweg,53.419643,10.220821,6,Bergedorf
Neuengammer Hinterdeich,53.446648,10.176726,6,Bergedorf
Neuengammer Hinterdeich (Ost),53.427753,10.21511,6,Bergedorf
Neuengammer Hinterdeich 123,53.433033,10.203028,6,Bergedorf
Neuengammer Hinterdeich 143,53.435593,10.205087,6,Bergedorf
Neuengammer Hinterdeich 180,53.438854,10.203102,6,Bergedorf
Neuengammer Hinterdeich 60,53.428787,10.205466,6,Bergedorf
Neuengammer Kirche,53.44603,10.222255,6,Bergedorf
Neuengammer Marschbahndamm,53.42406,10.253502,6,Bergedorf
Neuer Friedhof,53.44587,9.956061,7,Harburg
Neuer Fährweg,53.5303,9.790892,7,Harburg
Neuer Höltigbaum,53.608143,10.185414,5,Wandsbek
Neuer Pferdemarkt,53.5584,9.963346,1,Hamburg-Mitte
Neugrabener Heideweg,53.462223,9.866103,7,Harburg
Neugrabener Markt,53.47075,9.854419,7,Harburg
Neuhof (Fähre),53.52527,9.94198,1,Hamburg-Mitte
Neuhöfer Damm,53.512794,9.969335,1,Hamburg-Mitte
Neuhöfer Straße (Mitte),53.510704,9.982281,1,Hamburg-Mitte
Neuhöfer Straße (Ost),53.510185,9.992676,1,Hamburg-Mitte
Neuland,53.462936,10.003904,7,Harburg
Neuländer Elbdeich 174,53.47103,10.021123,7,Harburg
Neuländer Elbdeich 76,53.468163,10.006648,7,Harburg
Neuländer Straße,53.466606,9.991839,7,Harburg
Neuländer Weg,53.462868,10.007004,7,Harburg
Neumühlen/Övelgönne,53.543533,9.914523,2,Altona
Neumühlen/Övelgönne (Fähre),53.544224,9.91487,2,Altona
Neumühler Kirchenweg,53.54476,9.925683,2,Altona
Neurahlstedter Graben,53.610386,10.177499,5,Wandsbek
Neusurenland,53.61639,10.113517,5,Wandsbek
Neuwiedenthaler Straße (Ost),53.47709,9.898904,7,Harburg
Neuwiedenthaler Straße (West),53.47676,9.861845,7,Harburg
Neßpriel,53.536083,9.858028,1,Hamburg-Mitte
Niedergeorgswerder Deich (Süd),53.503685,10.027394,1,Hamburg-Mitte
Niekampsweg,53.61116,9.89536,3,Eimsbüttel
Niendorfer Gehege,53.609985,9.926626,3,Eimsbüttel
Niendorfer Straße,53.61018,9.958204,3,Eimsbüttel
Nienstedtener Marktplatz,53.5538,9.844731,2,Altona
Nincoper Straße 160,53.51547,9.792198,7,Harburg
Nincoper Straße 28,53.512848,9.819389,7,Harburg
Nincoper Straße 99,53.513504,9.803664,7,Harburg
Nippoldstraße (Ost),53.515247,9.969241,1,Hamburg-Mitte
Nippoldstraße (West),53.520702,9.944472,1,Hamburg-Mitte
Norbert-Schmid-Platz,53.65389,10.062777,5,Wandsbek
Norderkirchenweg,53.528545,9.864088,1,Hamburg-Mitte
Norderloch,53.537403,9.967349,1,Hamburg-Mitte
Norderquerweg 42,53.4343,10.191583,6,Bergedorf
Norderquerweg 92,53.4295,10.196835,6,Bergedorf
Norderschulweg,53.53349,9.875923,1,Hamburg-Mitte
Nordmarkstraße,53.581993,10.110392,5,Wandsbek
Nordmeerstraße,53.53481,9.859088,1,Hamburg-Mitte
Nordmeertwiete,53.531574,9.859053,1,Hamburg-Mitte
Nordteich,53.625057,10.042055,4,Hamburg-Nord
Normannenweg,53.55118,10.035561,1,Hamburg-Mitte
Nymphenweg,53.44179,9.968415,7,Harburg
Nüßlerkamp,53.622616,10.084329,5,Wandsbek
O'Swaldstraße,53.556328,10.07975,1,Hamburg-Mitte
Obenhauptstraße,53.620743,10.007491,4,Hamburg-Nord
Oberer Landweg (Eisenbahnbrücke),53.487766,10.185714,6,Bergedorf
Oberhafenbrücke,53.544415,10.005359,1,Hamburg-Mitte
Oberschleems,53.53814,10.118913,1,Hamburg-Mitte
Oberstraße,53.577633,9.988951,3,Eimsbüttel
Oberwerder Damm,53.525154,10.026979,1,Hamburg-Mitte
Ochsenwerder Elbdeich,53.446663,10.107836,6,Bergedorf
Ochsenwerder Elbdeich 3,53.45747,10.075342,6,Bergedorf
Ochsenwerder Kirche,53.476627,10.084518,6,Bergedorf
Ochsenwerder Mühlenweg,53.478382,10.098932,6,Bergedorf
Ochsenwerder Norderdeich 194,53.46774,10.109123,6,Bergedorf
Ochsenwerder Norderdeich 220,53.465527,10.113086,6,Bergedorf
Ochsenwerder Norderdeich 320,53.461365,10.130548,6,Bergedorf
Oddernskamp,53.59868,9.952299,3,Eimsbüttel
Odemanns Heck,53.44656,10.220359,6,Bergedorf
Oehleckerring,53.6603,10.002701,4,Hamburg-Nord
Oesterleystraße,53.561394,9.81165,2,Altona
Offakamp,53.59864,9.971528,3,Eimsbüttel
Offenbachweg,53.632633,10.173916,5,Wandsbek
Ohkamp,53.638046,10.023809,4,Hamburg-Nord
Ohlendieck,53.662582,10.087443,5,Wandsbek
Ohlendorffs Tannen,53.66806,10.147304,5,Wandsbek
Ohlsdorfer Straße (Planetarium),53.599346,10.00677,4,Hamburg-Nord
Ohnsorgweg,53.55488,9.869575,2,Altona
Ohrnsweg,53.473904,9.822208,7,Harburg
Oldenburger Straße,53.605576,9.929068,3,Eimsbüttel
Oldenfelde,53.617603,10.128772,5,Wandsbek
Oldesloer Straße,53.63547,9.918486,3,Eimsbüttel
Olivaer Straße,53.583588,10.057584,4,Hamburg-Nord
Oortkaten,53.44904,10.090422,6,Bergedorf
Oortkatenufer,53.440666,10.101239,6,Bergedorf
Oortkatenweg,53.456528,10.105699,6,Bergedorf
Oortkatenweg (Nord),53.46419,10.120233,6,Bergedorf
Op de Elg,53.654957,10.11833,5,Wandsbek
Op'n Hainholt,53.58073,9.810632,2,Altona
Opferberg,53.47198,9.876462,7,Harburg
Orchideenstieg,53.602665,9.990231,4,Hamburg-Nord
Organistenweg,53.520638,9.811895,7,Harburg
Ortwinstieg,53.57886,9.773953,2,Altona
Osakaallee (Überseequartier),53.5428,9.998583,1,Hamburg-Mitte
Osdorfer Weg,53.565872,9.895429,2,Altona
Ost-Kraueler Bogen,53.397686,10.224988,6,Bergedorf
Osterbrookplatz,53.547108,10.057519,1,Hamburg-Mitte
Osterfelddeich,53.520004,9.885731,1,Hamburg-Mitte
Osterfeldweg,53.435966,9.971864,7,Harburg
Osterkamp,53.569656,10.100076,5,Wandsbek
Ostermeyerstraße,53.568424,9.866396,2,Altona
Oststeinbeker Weg (Mitte),53.5386,10.14045,1,Hamburg-Mitte
Oststeinbeker Weg (West),53.53572,10.131353,1,Hamburg-Mitte
Otto-Grot-Straße,53.488663,10.147561,6,Bergedorf
Otto-Hahn-Schule Jenfeld,53.579136,10.127998,5,Wandsbek
Overhaken,53.436775,10.106977,6,Bergedorf
Overwerder,53.430614,10.113407,6,Bergedorf
Owiesenstraße,53.606445,10.067069,5,Wandsbek
Paeplowstieg,53.615704,9.986139,4,Hamburg-Nord
Pahlblöckensstieg,53.606487,10.169081,5,Wandsbek
Palstek,53.533775,9.851315,1,Hamburg-Mitte
Paracelsusstraße,53.59744,10.13196,5,Wandsbek
Parkallee,53.57255,9.983994,3,Eimsbüttel
Parkplatz Dradenau,53.523933,9.903033,1,Hamburg-Mitte
Parkstraße,53.55297,9.881938,2,Altona
Paul-Roosen-Straße,53.553368,9.954178,2,Altona
Paulinenstraße,53.554955,9.964641,1,Hamburg-Mitte
Pepermölenbek,53.54745,9.953939,2,Altona
Perelsstraße,53.510956,10.203441,6,Bergedorf
Perelsstraße (Mitte),53.509216,10.201915,6,Bergedorf
Peter-Timm-Straße,53.63965,9.915963,3,Eimsbüttel
Peuter Elbdeich,53.521652,10.043374,1,Hamburg-Mitte
Peutestraße 22,53.523987,10.036209,1,Hamburg-Mitte
Peutestraße 50,53.520138,10.04792,1,Hamburg-Mitte
Peutestraße 72,53.517902,10.052735,1,Hamburg-Mitte
Pfeilshofer Weg,53.64171,10.097279,5,Wandsbek
Pfingstberg,53.488075,10.228285,6,Bergedorf
Pflegezentrum Farmsen,53.613716,10.114867,5,Wandsbek
Pflegezentrum Holstenhof,53.567944,10.122915,5,Wandsbek
Pflegezentrum Lutherpark,53.572914,9.906326,2,Altona
Pflugacker,53.61368,9.898345,3,Eimsbüttel
Philosophenweg,53.54924,9.909697,2,Altona
Pieperweg,53.580265,9.823049,2,Altona
Pinkertbrücke,53.527527,10.084687,1,Hamburg-Mitte
Pinkertweg (Mitte),53.52624,10.092782,1,Hamburg-Mitte
Pinkertweg (Ost),53.522373,10.104866,1,Hamburg-Mitte
Pinkertweg 12,53.5268,10.089645,1,Hamburg-Mitte
Pinneberger Chaussee,53.6185,9.889637,3,Eimsbüttel
Plattenfoort,53.6289,10.137261,5,Wandsbek
Platz der Arbeiterinnen,53.55836,9.938656,2,Altona
Plettenbergstraße,53.504715,10.203566,6,Bergedorf
Pollhof,53.47341,10.230678,6,Bergedorf
Pommernweg,53.642708,9.956588,3,Eimsbüttel
Poppenbütteler Berg,53.668762,10.082564,5,Wandsbek
Poppenbütteler Bogen,53.670593,10.070091,5,Wandsbek
Poppenbüttler Markt,53.65941,10.084959,5,Wandsbek
Poppenbüttler Stieg,53.644775,10.051781,5,Wandsbek
Porgesring,53.521503,10.098073,1,Hamburg-Mitte
Potsdamer Straße,53.58589,10.148625,5,Wandsbek
Preetzer Straße,53.633045,10.016855,4,Hamburg-Nord
Prehnsweg,53.604618,10.174695,5,Wandsbek
Prinzenweg,53.55472,10.113465,1,Hamburg-Mitte
Pröbenweg,53.55445,10.050157,1,Hamburg-Mitte
Pulverhofsweg,53.598682,10.123549,5,Wandsbek
Pumpwerk Allermöhe,53.481934,10.117989,6,Bergedorf
Püttenhorst (Süd),53.477898,10.186222,6,Bergedorf
Quellgrund,53.452885,9.867097,7,Harburg
Querkamp,53.551434,10.094292,1,Hamburg-Mitte
Quittenweg,53.62726,10.109208,5,Wandsbek
Raalandsweg,53.57727,9.761182,2,Altona
Rabenstein,53.446198,9.969253,7,Harburg
Radickestraße,53.439445,10.002191,7,Harburg
Rahel-Varnhagen-Weg,53.488007,10.174406,6,Bergedorf
Rahewinkel,53.52275,10.155253,1,Hamburg-Mitte
Rahlstedt Center,53.604248,10.158338,5,Wandsbek
Rahlstedter Kamp,53.609524,10.173743,5,Wandsbek
Rahlstedter Weg (Mitte),53.602634,10.127703,5,Wandsbek
Rahmwerder Straße,53.511932,10.021036,1,Hamburg-Mitte
Rahnstraße,53.605663,10.070932,5,Wandsbek
Rambachstraße,53.544548,9.97602,1,Hamburg-Mitte
Rathaus Altona,53.547726,9.936324,2,Altona
Rathaus Bergedorf,53.487545,10.220315,6,Bergedorf
Rathaus Stellingen,53.592625,9.934946,3,Eimsbüttel
Rathaus Wilhelmsburg,53.49937,9.996688,1,Hamburg-Mitte
Rathausmarkt,53.550488,9.99457,1,Hamburg-Mitte
Rathausmarkt (Petrikirche),53.55035,9.996025,1,Hamburg-Mitte
Ratsmühlendamm,53.62739,10.013015,4,Hamburg-Nord
Rauchschwalbenweg,53.621174,10.14251,5,Wandsbek
Rauschener Ring,53.594334,10.081202,5,Wandsbek
Rebenacker,53.61912,9.901181,3,Eimsbüttel
Recknitzstraße,53.599354,9.867286,2,Altona
Reclamstraße,53.538597,10.110206,1,Hamburg-Mitte
Redderblock,53.615997,10.152268,5,Wandsbek
Redingskamp,53.612667,9.890768,3,Eimsbüttel
Reestück,53.650078,10.009158,4,Hamburg-Nord
Regerstraße (Ost),53.571064,9.916914,2,Altona
Rehkoppel,53.560345,10.119665,1,Hamburg-Mitte
Rehmbrook,53.66073,10.076655,5,Wandsbek
Rehrstieg,53.477367,9.875022,7,Harburg
Reichsbahnstraße,53.602524,9.912233,3,Eimsbüttel
Reiherstieg Hauptdeich,53.51115,9.978161,1,Hamburg-Mitte
Reimboldweg,53.48265,10.227285,6,Bergedorf
Reinheimerweg,53.583065,9.814436,2,Altona
Reinskamp,53.54433,10.127238,1,Hamburg-Mitte
Reitbrooker Hinterdeich,53.461227,10.139413,6,Bergedorf
Reitbrooker Mühle,53.467823,10.170747,6,Bergedorf
Reitbrooker Mühlenbrücke,53.46797,10.176006,6,Bergedorf
Reitdeich,53.475163,10.101937,6,Bergedorf
Rentenversicherung Nord,53.59211,10.108709,5,Wandsbek
Repsoldstraße,53.548416,10.015442,1,Hamburg-Mitte
Rethebrücke (Süd),53.50218,9.967812,1,Hamburg-Mitte
Reventlowstraße,53.552402,9.890573,2,Altona
Rheingoldweg (Ost),53.583885,9.75366,2,Altona
Rheingoldweg (West),53.586292,9.739539,2,Altona
Rhiemsweg,53.55787,10.074976,1,Hamburg-Mitte
Richard-Dehmel-Straße,53.56273,9.798817,2,Altona
Richard-Gödeke-Weg,53.48543,10.184806,6,Bergedorf
Richard-Linde-Weg,53.50153,10.187952,6,Bergedorf
Richardstraße,53.56863,10.038735,5,Wandsbek
Richeystraße,53.603237,10.051685,5,Wandsbek
Rickelstraße,53.448723,9.94894,7,Harburg
Rieck-Museum,53.45875,10.215454,6,Bergedorf
Rieckweg,53.448906,10.230059,6,Bergedorf
Riehlstraße,53.4973,10.196906,6,Bergedorf
Riepenburg,53.402115,10.204786,6,Bergedorf
Riepenburger Brack,53.4001,10.209165,6,Bergedorf
Ringheide,53.46188,9.854497,7,Harburg
Ringstraße,53.635902,10.16285,5,Wandsbek
Rispengrasweg,53.56081,10.126393,1,Hamburg-Mitte
Rissener Busch,53.5796,9.766176,2,Altona
Rissener Dorfstraße,53.58221,9.754416,2,Altona
Rissener Ufer,53.56578,9.761005,2,Altona
Rittmerskamp,53.64828,10.009085,4,Hamburg-Nord
Rolfinckstraße,53.639187,10.094779,5,Wandsbek
Rondenbarg,53.57841,9.919655,2,Altona
Rosenbrook,53.60403,9.985852,4,Hamburg-Nord
Rostweg,53.47157,9.832569,7,Harburg
Rote Brücke,53.530342,10.108784,1,Hamburg-Mitte
Rotenbrückenweg,53.530396,10.116733,1,Hamburg-Mitte
Rotenhäuser Straße (Ost),53.50636,10.004126,1,Hamburg-Mitte
Rotenhäuser Straße (West),53.50447,9.991939,1,Hamburg-Mitte
Roter Hahn,53.625484,10.117399,5,Wandsbek
Rothenburgsorter Marktplatz,53.53468,10.038461,1,Hamburg-Mitte
Rothenburgstraße,53.53152,10.056225,1,Hamburg-Mitte
Rothenhauschaussee 243,53.471966,10.263468,6,Bergedorf
Rothestraße,53.5477,9.929066,2,Altona
Roßkanal,53.522114,9.947821,1,Hamburg-Mitte
Roßweg/HDW,53.522964,9.945834,1,Hamburg-Mitte
Rubbertstraße 30,53.51091,10.004008,1,Hamburg-Mitte
Rudolf Steiner Schule Harburg,53.461533,9.89189,7,Harburg
Rudolf-Kinau-Allee,53.535675,9.853269,1,Hamburg-Mitte
Rudolf-Roß-Allee,53.55835,10.103027,1,Hamburg-Mitte
Rudorffweg,53.512444,10.178414,6,Bergedorf
Rugenbarg (Nord),53.58847,9.876199,2,Altona
Rugenfeld,53.578743,9.850618,2,Altona
Ruhrstraße,53.570694,9.923321,2,Altona
Rungedamm (Mitte),53.49887,10.110313,6,Bergedorf
Rungedamm (Nord),53.499767,10.105845,6,Bergedorf
Rungedamm (Ost),53.49361,10.127006,6,Bergedorf
Rungedamm (West),53.497185,10.097535,6,Bergedorf
Rupertistraße (Mitte),53.55714,9.838127,2,Altona
Ruscheweyhstraße,53.649044,10.060977,5,Wandsbek
Ruselerweg,53.492493,10.195746,6,Bergedorf
Ruwoldtweg,53.609158,10.047556,5,Wandsbek
Rögenfeld,53.653313,10.151093,5,Wandsbek
Rögenweg,53.656227,10.160187,5,Wandsbek
Rönkkoppel,53.613663,10.107295,5,Wandsbek
Rönneburger Kirchweg,53.428486,9.982224,7,Harburg
Röntgenstraße,53.62355,10.011276,4,Hamburg-Nord
Röpers Weide,53.557095,9.892965,2,Altona
Röpraredder,53.509914,10.21027,6,Bergedorf
Röschdaalskoppel,53.587208,9.764456,2,Altona
Röthmoorweg,53.628555,9.922363,3,Eimsbüttel
Röörfeld,53.518997,9.952033,1,Hamburg-Mitte
Rübezahlstraße,53.564278,10.120689,1,Hamburg-Mitte
Rüdigerau (Kinder-Hospiz),53.589817,9.752331,2,Altona
Rüschhalbinsel,53.535164,9.866108,1,Hamburg-Mitte
Rüschpark,53.541615,9.863404,1,Hamburg-Mitte
Rüschpark (Fähre),53.539978,9.863582,1,Hamburg-Mitte
Rüschpark (Leegerwall),53.539307,9.86212,1,Hamburg-Mitte
Rüstweg,53.417248,9.982847,7,Harburg
S Allermöhe (Stellbrinkweg),53.489803,10.159675,6,Bergedorf
S Billwerder-Moorfleet,53.516617,10.095927,1,Hamburg-Mitte
S Diebsteich (Ostseite),53.566673,9.934992,2,Altona
S Diebsteich (Westseite),53.568714,9.931746,2,Altona
S  Airport,53.63265,10.00645,4,Hamburg-Nord
S Hammerbrook (Nord),53.54832,10.022546,1,Hamburg-Mitte
S Hammerbrook (Süd),53.546185,10.024184,1,Hamburg-Mitte
S Harburg Rathaus,53.460533,9.981685,7,Harburg
S Harburg Rathaus (Eißendorfer Straße),53.460266,9.976966,7,Harburg
S Harburg Rathaus (Hölertwiete),53.461403,9.982006,7,Harburg
S Heimfeld,53.46554,9.962692,7,Harburg
S Holstenstraße,53.56199,9.948537,2,Altona
S Holstenstraße (Holstenplatz),53.561905,9.946402,2,Altona
S Landwehr (Hasselbrookstraße),53.561775,10.037586,5,Wandsbek
S Mittlerer Landweg,53.497337,10.131942,6,Bergedorf
S Nettelnburg (Südeingang),53.486378,10.180026,6,Bergedorf
S Neugraben (Am Johannisland),53.475533,9.853958,7,Harburg
S Neugraben (Nordseite),53.47478,9.853521,7,Harburg
S Neuwiedenthal,53.47267,9.874338,7,Harburg
S Ottensen,53.55969,9.927745,2,Altona
S Rothenburgsort,53.539017,10.042595,1,Hamburg-Mitte
S Stellingen,53.590027,9.919107,3,Eimsbüttel
S Stellingen (Bus-Shuttle),53.58994,9.915208,3,Eimsbüttel
S Veddel,53.52078,10.013263,1,Hamburg-Mitte
S Veddel (Westseite),53.52311,10.011534,1,Hamburg-Mitte
S Wilhelmsburg,53.49744,10.00698,1,Hamburg-Mitte
SWOP,53.531586,9.894011,1,Hamburg-Mitte
Sachsenbrücke,53.52749,10.016811,1,Hamburg-Mitte
Saling,53.558918,10.048155,1,Hamburg-Mitte
Salomon-Petri-Ring,53.547153,10.131959,1,Hamburg-Mitte
Samlandweg,53.64869,10.003046,4,Hamburg-Nord
Sandberg,53.54436,9.944562,2,Altona
Sande,53.4063,10.158545,6,Bergedorf
Sander Markt,53.492687,10.208574,6,Bergedorf
Sandkamp,53.55405,10.089938,1,Hamburg-Mitte
Sandkrugweg,53.62531,9.891942,3,Eimsbüttel
Sandkuhlenkoppel,53.667793,10.067415,5,Wandsbek
Sandkule,53.607403,10.149843,5,Wandsbek
Sandort,53.57564,9.846903,2,Altona
Sandwisch,53.51526,10.074167,6,Bergedorf
Sanmannreihe,53.497887,10.208134,6,Bergedorf
Sarenweg,53.683628,10.115473,5,Wandsbek
Sartoriusstraße,53.57802,9.941327,3,Eimsbüttel
Saseler Bogen,53.642296,10.127022,5,Wandsbek
Saseler Damm (Mitte),53.65634,10.093702,5,Wandsbek
Saseler Kamp,53.649105,10.117585,5,Wandsbek
Saseler Markt,53.653866,10.111631,5,Wandsbek
Saseler Straße,53.6227,10.166129,5,Wandsbek
Saselheider Weg,53.628483,10.132625,5,Wandsbek
Schadesweg,53.54761,10.052251,1,Hamburg-Mitte
Schafshagenberg,53.440895,9.945635,7,Harburg
Schanzengrund,53.465588,9.890455,7,Harburg
Scharbeutzer Straße,53.599823,10.131419,5,Wandsbek
Scharfsche Schlucht,53.426277,9.975594,7,Harburg
Schatzmeisterstraße,53.56714,10.078245,5,Wandsbek
Scheelring,53.638783,9.910551,3,Eimsbüttel
Schellerdamm,53.465946,9.986854,7,Harburg
Schenefelder Holt,53.58291,9.829231,2,Altona
Schierenberg,53.62414,10.145924,5,Wandsbek
Schiffbeker Höhe,53.547585,10.107243,1,Hamburg-Mitte
Schiffbeker Weg,53.570927,10.1247,5,Wandsbek
Schillerufer,53.49088,10.211626,6,Bergedorf
Schillingsbekweg,53.594788,9.948088,3,Eimsbüttel
Schimmelmannstraße (Mitte),53.57208,10.10503,5,Wandsbek
Schimmelreiterweg,53.590664,10.17831,5,Wandsbek
Schlachthofstraße (Nord),53.46244,9.99537,7,Harburg
Schlachthofstraße (Süd),53.459354,9.994093,7,Harburg
Schlangenkoppel,53.54324,10.142219,1,Hamburg-Mitte
Schlankreye (DKH),53.571842,9.969916,3,Eimsbüttel
Schlebuschweg,53.492416,10.224689,6,Bergedorf
Schleemer Weg (Nord),53.542454,10.114968,1,Hamburg-Mitte
Schlenzigstraße,53.514755,10.001807,1,Hamburg-Mitte
Schleusendamm,53.465137,10.189721,6,Bergedorf
Schmuckshöhe,53.61121,10.03706,4,Hamburg-Nord
Schnackenburgallee,53.592037,9.904305,3,Eimsbüttel
Schnackenburgallee (Mitte),53.58378,9.911149,2,Altona
Schnackenburgallee 56,53.580315,9.91801,2,Altona
Schubackstraße,53.596905,9.988511,4,Hamburg-Nord
Schulbergredder,53.65662,10.085463,5,Wandsbek
Schule Altengamme,53.42758,10.268936,6,Bergedorf
Schule Arp-Schnitger-Stieg,53.51622,9.811298,7,Harburg
Schule Billbrookdeich,53.532883,10.111022,1,Hamburg-Mitte
Schule Curslack,53.447792,10.221372,6,Bergedorf
Schule Curslack (Kehre),53.448036,10.221153,6,Bergedorf
Schule Fünfhausen,53.448624,10.13334,6,Bergedorf
Schule Marschweg,53.584972,9.761079,2,Altona
Schule Mittlerer Landweg,53.499203,10.134268,6,Bergedorf
Schule Mümmelmannsberg,53.52984,10.141526,1,Hamburg-Mitte
Schule Neuland,53.467934,10.036574,7,Harburg
Schule Norderschulweg,53.531868,9.876493,1,Hamburg-Mitte
Schule Ochsenwerder,53.471558,10.074599,6,Bergedorf
Schule Zollenspieker,53.400826,10.18358,6,Bergedorf
Schulen Stübenhofer Weg,53.482567,10.015886,1,Hamburg-Mitte
Schulenburgring,53.508057,10.186884,6,Bergedorf
Schulredder,53.51419,10.162377,6,Bergedorf
Schulterblatt,53.563873,9.960708,3,Eimsbüttel
Schulweg,53.574677,9.959464,3,Eimsbüttel
Schumannstraße,53.576588,10.023862,4,Hamburg-Nord
Schwarzer Weg,53.606373,10.055691,5,Wandsbek
Schweidnitzer Straße,53.577057,10.135974,5,Wandsbek
Schwentnerring,53.49349,10.01009,1,Hamburg-Mitte
Schweriner Straße,53.60502,10.162227,5,Wandsbek
Schwersweg,53.47751,10.077581,6,Bergedorf
Schön Klinik Eilbek,53.578697,10.049732,4,Hamburg-Nord
Schönsberg,53.65882,10.113244,5,Wandsbek
Schöpfwerk Neuland,53.469563,9.999317,7,Harburg
Schützenhof,53.478508,10.023953,1,Hamburg-Mitte
Schützenstraße (Mitte),53.563507,9.92893,2,Altona
See Hinterm Horn,53.474815,10.158483,6,Bergedorf
Seefelder Fischteiche,53.451225,10.157043,6,Bergedorf
Seehafenbrücke (Amtsgericht),53.464966,9.977602,7,Harburg
Seehof,53.518223,9.781742,7,Harburg
Seehofring,53.521202,9.779701,7,Harburg
Seehofring (Nord),53.525097,9.780511,7,Harburg
Seehofring (Süd),53.521133,9.781539,7,Harburg
Seehofweg,53.52409,9.783162,7,Harburg
Seestücken,53.449474,9.953863,7,Harburg
Sellhopsweg (Albertinen-Haus),53.629444,9.928796,3,Eimsbüttel
Semperstraße,53.586533,10.017564,4,Hamburg-Nord
Sengelmannstraße (Mitte),53.61409,10.019708,4,Hamburg-Nord
Seniorensitz Am Hegen,53.59277,10.171542,5,Wandsbek
Shanghaiallee,53.54101,10.003921,1,Hamburg-Mitte
Siebenbuchen,53.573322,9.806927,2,Altona
Sieberlingstraße,53.550335,9.845265,2,Altona
Siedenfelder Weg (Mitte),53.495,10.020599,1,Hamburg-Mitte
Siedenfelder Weg (West),53.496784,10.015518,1,Hamburg-Mitte
Siedfeld,53.435116,10.129836,6,Bergedorf
Siedlung Curslack (Nord),53.471703,10.20376,6,Bergedorf
Siedlung Fünfhausen,53.450787,10.116343,6,Bergedorf
Siegrunweg,53.589256,9.767136,2,Altona
Sieker Landstraße,53.605686,10.167382,5,Wandsbek
Sielkuhle,53.417576,10.201343,6,Bergedorf
Siemersplatz,53.59978,9.963885,3,Eimsbüttel
Sietas,53.531258,9.787517,7,Harburg
Sievekingdamm,53.56047,10.052208,1,Hamburg-Mitte
Sieversstücken,53.580605,9.786114,2,Altona
Silcherstraße,53.56899,9.90271,2,Altona
Siloahweg,53.635376,9.90127,3,Eimsbüttel
Singapurstraße,53.543793,9.996766,1,Hamburg-Mitte
Sinstorfer Kirche,53.424236,9.973321,7,Harburg
Sinstorfer Kirchweg,53.424564,9.980775,7,Harburg
Sinstorfer Kirchweg (Schultwiete),53.42434,9.979616,7,Harburg
Skaldenweg,53.63354,10.179384,5,Wandsbek
Sonnenland,53.53677,10.134699,1,Hamburg-Mitte
Sonnenweg (Mitte),53.5903,10.123342,5,Wandsbek
Sophie-Schoop-Weg,53.489388,10.163627,6,Bergedorf
Sophienterrasse,53.576664,9.993367,3,Eimsbüttel
Sorbusallee,53.62709,10.073244,4,Hamburg-Nord
Sorenkoppel,53.591084,10.185073,5,Wandsbek
Sorthmannweg,53.58344,9.956109,3,Eimsbüttel
Spadenländer Ecke,53.49134,10.065125,6,Bergedorf
Spadenländer Elbdeich,53.477196,10.062963,6,Bergedorf
Spaldingstraße,53.547745,10.013253,1,Hamburg-Mitte
Spanische Furt,53.625084,9.917012,3,Eimsbüttel
Speckenweg,53.47244,10.261043,6,Bergedorf
Speckenwegbrücke,53.467808,10.258872,6,Bergedorf
Specksaalredder,53.701645,10.103593,5,Wandsbek
Speersort,53.54952,9.996624,1,Hamburg-Mitte
Sperlingsweg,53.645542,9.974965,3,Eimsbüttel
Sperrwerk Estemündung,53.53396,9.79372,7,Harburg
Spieringstraße,53.484703,10.226681,6,Bergedorf
Spitzbergenweg,53.62927,10.166038,5,Wandsbek
Spliedtring,53.562504,10.108659,1,Hamburg-Mitte
Spreenende,53.612724,9.973498,4,Hamburg-Nord
Spritzenhaus,53.43722,10.187872,6,Bergedorf
St. Pauli Hafenstraße,53.546436,9.9649,1,Hamburg-Mitte
St.-Michael-Kirche,53.483284,10.225058,6,Bergedorf
Stadionstraße,53.58052,9.884475,2,Altona
Stadtbahnstraße,53.65365,10.106906,5,Wandsbek
Stadtbahnstraße (Mitte),53.649597,10.098335,5,Wandsbek
Stadtpark (Planetarium),53.59607,10.013882,4,Hamburg-Nord
Stadtteilschule Bergedorf,53.492664,10.190477,6,Bergedorf
Stauffenbergstraße,53.560265,9.832334,2,Altona
Stavenhagenstraße,53.610092,9.968708,4,Hamburg-Nord
Steendiek,53.532284,9.878794,1,Hamburg-Mitte
Steilshooper Allee,53.608803,10.072749,5,Wandsbek
Steinbeker Grenzdamm,53.524113,10.150088,1,Hamburg-Mitte
Steinbeker Marktstraße,53.532543,10.127301,1,Hamburg-Mitte
Steinwegel,53.65515,10.125021,5,Wandsbek
Steinwerder (Alter Elbtunnel),53.54132,9.966548,1,Hamburg-Mitte
Steinwerder (Fähre),53.53986,9.965942,1,Hamburg-Mitte
Steinwiesenweg,53.60987,9.916017,3,Eimsbüttel
Stellingen (Arenen),53.58978,9.918474,3,Eimsbüttel
Stemmeshay,53.59169,10.130643,5,Wandsbek
Stengelestraße,53.54918,10.090975,1,Hamburg-Mitte
Stenzelring,53.517776,10.000326,1,Hamburg-Mitte
Stephanstraße,53.58626,10.085965,5,Wandsbek
Sternbergweg,53.56579,9.84663,2,Altona
Sternbrücke,53.56126,9.955125,2,Altona
Sterntwiete,53.50417,10.214191,6,Bergedorf
Sternwarte (Besucherzentrum),53.482143,10.239578,6,Bergedorf
Sternwarte (Universität),53.4803,10.238153,6,Bergedorf
Stiftung Alsterdorf,53.614925,10.022025,4,Hamburg-Nord
Stillhorner Weg,53.478397,10.033576,1,Hamburg-Mitte
Stoeckhardtstraße,53.55778,10.049696,1,Hamburg-Mitte
Stoppelfeld,53.612133,10.147569,5,Wandsbek
Strandtreppe,53.558334,9.810852,2,Altona
Straßburger Platz,53.580933,10.062063,4,Hamburg-Nord
Streekbrücke,53.58358,9.994939,3,Eimsbüttel
Stremelweg,53.47271,9.844173,7,Harburg
Stresemannstraße,53.563793,9.94498,2,Altona
Strietkoppel,53.52858,10.153798,1,Hamburg-Mitte
Strucksbarg,53.449924,9.937647,7,Harburg
Studio,53.586098,10.124864,5,Wandsbek
Stuhtsweg,53.619713,10.112516,5,Wandsbek
Stutsmoor,53.57278,9.887061,2,Altona
Störtebekerweg,53.46955,9.863687,7,Harburg
Stübenhofer Weg,53.484104,10.012458,1,Hamburg-Mitte
Stübenhofer Wettern,53.48521,10.0241,1,Hamburg-Mitte
Stübenplatz,53.51738,9.987597,1,Hamburg-Mitte
Stückenstraße (Schön Klinik),53.579205,10.049442,4,Hamburg-Nord
Stüffel,53.670326,10.133853,5,Wandsbek
Stüffeleck,53.669167,10.143192,5,Wandsbek
Suhrenkamp,53.619232,10.01415,4,Hamburg-Nord
Susettestraße,53.54645,9.925343,2,Altona
Suurheid,53.582848,9.768515,2,Altona
Swebenhöhe,53.60976,10.108583,5,Wandsbek
Sydneystraße,53.6054,10.017782,4,Hamburg-Nord
Sylter Weg,53.590214,10.104945,5,Wandsbek
Süderquerweg 208,53.411575,10.163034,6,Bergedorf
Süderquerweg 263,53.41294,10.15665,6,Bergedorf
Süderquerweg 399,53.421616,10.144279,6,Bergedorf
Süderstraße,53.545334,10.030424,1,Hamburg-Mitte
Sülldorfer Brooksweg,53.57735,9.768641,2,Altona
Sülldorfer Landstraße,53.576355,9.82326,2,Altona
Sülzbrack,53.399223,10.173838,6,Bergedorf
Talweg,53.472126,9.883679,7,Harburg
Tannenberg,53.584087,9.880714,2,Altona
Tannenhof,53.686512,10.094963,5,Wandsbek
Tannhäuserweg,53.5858,9.749164,2,Altona
Tarpen,53.664913,10.001283,4,Hamburg-Nord
Tarpenbekstraße,53.59432,9.983934,4,Hamburg-Nord
Tatenberger Damm,53.49251,10.067776,6,Bergedorf
Tatenberger Schleuse,53.497757,10.077929,6,Bergedorf
Tegelsbarg (Nord),53.66137,10.059259,5,Wandsbek
Tegelweg,53.605904,10.106835,5,Wandsbek
Terminal O'Swaldkai,53.52903,10.013078,1,Hamburg-Mitte
Teufelsbrück,53.546444,9.862869,2,Altona
Teufelsbrück (Fähre),53.547623,9.863844,2,Altona
Teufelsort,53.412403,10.191782,6,Bergedorf
Teufelsort (Kehre),53.411465,10.191107,6,Bergedorf
Thadenstraße (West),53.55499,9.951498,2,Altona
Theodor-Storm-Straße,53.593063,10.160796,5,Wandsbek
Theodor-Yorck-Straße,53.46413,9.987926,7,Harburg
Thiedingreihe,53.533657,10.046128,1,Hamburg-Mitte
Thielenstraße (Ost),53.500954,10.013463,1,Hamburg-Mitte
Thielenstraße (West),53.50251,10.003764,1,Hamburg-Mitte
Thomas-Mann-Straße,53.627823,10.112019,5,Wandsbek
Thörlstraße,53.464676,9.959781,7,Harburg
Tiedemannstraße,53.579937,9.934983,3,Eimsbüttel
Tietzestraße,53.566784,9.832628,2,Altona
Tilsiter Straße,53.588818,10.078555,5,Wandsbek
Tilsiter Straße (Mitte),53.5907,10.084431,5,Wandsbek
Timmendorfer Straße,53.60381,10.130876,5,Wandsbek
Timmerloh,53.657513,10.020015,4,Hamburg-Nord
Tinsdaler Heideweg,53.57152,9.74227,2,Altona
Tinsdaler Kirchenweg,53.571075,9.75778,2,Altona
Trebelstraße,53.598473,9.861135,2,Altona
Treptower Straße,53.61375,10.136144,5,Wandsbek
Trettaustraße,53.493896,9.990577,1,Hamburg-Mitte
Treudelberg,53.67497,10.092711,5,Wandsbek
Tribünenweg,53.559486,10.081038,1,Hamburg-Mitte
Triftstraße,53.458107,9.942645,7,Harburg
Trilluper Weg,53.70745,10.11006,5,Wandsbek
Turnierstieg,53.5998,10.091439,5,Wandsbek
Twietenkoppel,53.67306,10.121972,5,Wandsbek
Twistering,53.4779,9.879295,7,Harburg
Tönninger Weg,53.568546,9.846791,2,Altona
U  Meßberg,53.547348,10.001672,1,Hamburg-Mitte
U Berne (Berner Stieg),53.627316,10.143762,5,Wandsbek
U Berne (Kriegkamp),53.626205,10.139623,5,Wandsbek
U Gänsemarkt (Valentinskamp),53.55567,9.985828,1,Hamburg-Mitte
U Habichtstraße,53.593674,10.050964,4,Hamburg-Nord
U Habichtstraße (Steilshooper Straße),53.59513,10.050099,4,Hamburg-Nord
U Hammer Kirche (Hammer Landstraße),53.554928,10.057412,1,Hamburg-Mitte
U Langenhorn Markt (Krohnstieg),53.649406,10.016266,4,Hamburg-Nord
U Langenhorn Markt (Tangstedter Landstraße),53.648975,10.016255,4,Hamburg-Nord
U Legienstraße,53.546223,10.097904,1,Hamburg-Mitte
U Ohlstedt,53.69502,10.136834,5,Wandsbek
U Rauhes Haus,53.553925,10.065067,1,Hamburg-Mitte
U Rödingsmarkt (Großer Burstah),53.54836,9.988917,1,Hamburg-Mitte
U S Berliner Tor (Bürgerweide),53.5532,10.025581,1,Hamburg-Mitte
U S Elbbrücken,53.53533,10.024163,1,Hamburg-Mitte
U S Elbbrücken (Baakenwerder Straße),53.53662,10.022435,1,Hamburg-Mitte
U S Elbbrücken (Zweibrückenstraße),53.53428,10.02551,1,Hamburg-Mitte
U S Ohlsdorf (Alsterdorfer Straße),53.61973,10.032494,4,Hamburg-Nord
U S Ohlsdorf (Fuhlsbüttler Straße),53.62117,10.0333,4,Hamburg-Nord
U S Ohlsdorf (Im Grünen Grunde),53.62077,10.030977,4,Hamburg-Nord
U S Wandsbeker Chaussee (Hammer Straße),53.570007,10.061124,5,Wandsbek
U Saarlandstraße (Süd),53.586678,10.033318,4,Hamburg-Nord
U St. Pauli,53.550076,9.970374,1,Hamburg-Mitte
U Steinstraße (Deichtorplatz),53.54886,10.005857,1,Hamburg-Mitte
UK Eppendorf,53.5889,9.975764,4,Hamburg-Nord
